,address,adm-fees,garage-places,price,rooms,square-foot,neighborhood,city,latitude,longitude,rand
0,"Avenida Raja Gabaglia, 1583 ",470.0,1,388834.0,1,40, Luxemburgo, Belo Horizonte ,-19.9364152,-43.9533964,0.7828605286327356
1,"Rua Espírito Santo, 1171 ",,1,531803.0,2,45-65, Centro, Belo Horizonte ,-18.8647762,-41.1217768,0.07922084837351784
2,"Rua dos Expedicionários, 1082 ",,5,1343141.0,4,411, Santa Amélia, Belo Horizonte ,-20.2252407,-44.3977797,0.2869030268370527
3,"Rua Marechal Hermes, 81 ",750.0,4,1872765.0,4,158, Gutierrez, Belo Horizonte ,-19.9371552,-43.9586943,0.7783942926689433
4,"Rua Juruna, 110 ",,6,639162.0,3,278, Pindorama, Belo Horizonte ,-19.9129822,-44.0199442,0.6211185424054382
5,"Rua Maria Pereira de Araújo, 15 ",500.0,1,515691.0,3,87, Castelo, Belo Horizonte ,-19.8861475,-44.0042361,0.4598052773938761
6,"Rua Espírito Santo, 1580 ",,2,1012658.0,2,60-71, Centro, Belo Horizonte ,-18.8647762,-41.1217768,0.7512066177588155
7,"Rua Matipó, 455 ",750.0,2,635718.0,4,153, Santo Antônio, Belo Horizonte ,-19.9473515,-43.9434703,0.5606155273905248
8,"Rua Pitangui, 000 ",,2,990148.0,3,200, Sagrada Família, Belo Horizonte ,-19.9023386,-43.9420716,0.12525695263189685
9,"Avenida dos Bandeirantes, 76 ",2400.0,3,3001991.0,4,570, Sion, Belo Horizonte ,-19.9572301,-43.9319731,0.7725152425839892
10,"Avenida Bias Fortes, 1603 ",480.0,1,370972.0,2,74, Lourdes, Belo Horizonte ,-19.9320955,-43.9393472,0.9668547168990342
11,"Rua Maestro Delê Andrade, 231 ",350.0,1,363719.0,3,72, Santa Efigênia, Belo Horizonte ,-19.9242017,-43.9131071,0.6951330118797059
12,"Rua Bom Despacho, 356 ",,3,1101239.0,5,250, Santa Tereza, Belo Horizonte ,-19.8738542,-44.0049198,0.29475929770990905
13,"Rua Curitiba, 1677 ",,2-3,989236.0,2,62-65, Lourdes, Belo Horizonte ,-19.9122312,-43.9396634,0.9762216177675584
14,"Rua Alvarenga Peixoto, 711 ",1092.0,3,1160031.0,3,102, Lourdes, Belo Horizonte ,-19.929576,-43.9494157,0.29533530254855866
15,Rua Carlos Schettino ,200.0,1,210873.0,2,52, Nova Gameleira, Belo Horizonte ,-19.9427423,-43.9951065,0.7151615048477779
16,"Rua Barão de Cocais, 397 ",380000.0,2,879428.0,4,160, Sagrada Família, Belo Horizonte ,-19.9093193,-43.9220712,0.7257040055031763
17,"Rua João Calvino, 150 ",,3,889414.0,3,215, São João Batista, Belo Horizonte ,-19.8179098,-43.9705903,0.11767580090607799
18,Rua Araraquara ,504.0,2,632551.0,3,82, Nova Suíssa, Belo Horizonte ,-19.9343061,-43.9775176,0.29555775859992806
19,"Rua Augusto José de Araújo, 217 ",,1,434920.0,2,90, São Gabriel, Belo Horizonte ,-19.8554481,-43.9186394,0.2966142851277749
20,"Rua Cecília Fonseca Coutinho, 480 ",250.0,1,313362.0,2,54, Castelo, Belo Horizonte ,-19.8888222,-43.995234,0.19150078498547662
21,"Rua João Antônio Cardoso, 128 ",366.0,--,586934.0,4,127, Ouro Preto, Belo Horizonte ,-19.8753366,-43.9827445,0.8572444836495934
22,"Rua Contria, 784 ",290.0,1,862972.0,2,160, Alto Barroca, Belo Horizonte ,-19.9288646,-43.9703277,0.5062949356528457
23,"Rua Jacson Passos, 15 ",,3,728624.0,3,200, Goiânia, Belo Horizonte ,-19.8587547,-43.9011513,0.20959377908251342
24,"Rua Tenente Marino Freire, 135 ",110.0,2,450756.0,3,140, Maria Helena, Belo Horizonte ,-19.8018933,-43.993773,0.8620034742205218
25,"Rua Sebastião Fabiano Dias, 105 ",2270.0,3,2305274.0,4,178, Belvedere, Belo Horizonte ,-19.9763098,-43.9441586,0.8219159535768218
26,"Avenida José Cândido da Silveira, 549 ",370.0,2,450387.0,3,90, Cidade Nova, Belo Horizonte ,-19.8772474,-43.9104561,0.25967247208072897
27,"Rua Grenat, 120 ",,3,458170.0,4,254, Vitória, Belo Horizonte ,-19.8618303,-43.8875317,0.7479493010674572
28,"Rua São Paulo, 1801 ",900.0,3,2359233.0,3,123, Lourdes, Belo Horizonte ,-19.914782,-43.9388011,0.6505332324343351
29,"Rua Antônio de Albuquerque, 230 ",1000.0,2,1056285.0,2,72, Savassi, Belo Horizonte ,-19.936584,-43.9421163,0.8683705562333565
30,"Rua da Bahia, 485 ",500.0,--,445071.0,3,96, Centro, Belo Horizonte ,-19.9151776,-43.9347647,0.7123948405074947
31,"Rua Mariano Procópio, 376 ",,2,421063.0,2,55, João Pinheiro, Belo Horizonte ,-19.9305746,-43.9939538,0.7615283313738757
32,"Rua São Sebastião do Paraíso, 351 ",460.0,3,637147.0,4,115, Itapoã, Belo Horizonte ,-19.8351911,-43.9633143,0.6907733676421896
33,"Rua Doutor Juvenal dos Santos, 324 ",900.0,2,957854.0,3,120, Luxemburgo, Belo Horizonte ,-19.9508257,-43.9585445,0.2688761622578497
34,"Rua Santa Rosa, 50 ",,1,332082.0,3,80, São Tomaz, Belo Horizonte ,-19.7876321,-43.977021,0.06941157113820196
35,"Rua Alvarenga Peixoto, 594 ",,1,832380.0,1,39-48, Lourdes, Belo Horizonte ,-19.929576,-43.9494157,0.9695262823955073
36,"Rua Mirante, 203 ",,--,396053.0,--,360, Boa Vista, Belo Horizonte ,-19.8910998,-43.890295,0.3157867012061404
37,"Rua Deputado Bernardino de Sena Figueiredo, 1177 ",,3,708128.0,3,90, Cidade Nova, Belo Horizonte ,-19.8840778,-43.9282818,0.42142512785422803
38,"Avenida Cristiano Machado, 1420 ",500.0,1,333901.0,3,92, Sagrada Família, Belo Horizonte ,-19.8475195,-43.9324755,0.5138374968650514
39,"Avenida Amazonas, 61 ",380.0,--,357197.0,2,65, Centro, Belo Horizonte ,-19.9379439,-43.9991336,0.16240973224057442
40,"Rua Rubi, 402 ",550.0,1,707900.0,3,110, Prado, Belo Horizonte ,-19.7884921,-43.9717152,0.7983355838022097
41,"Rua Alvarenga Peixoto, 425 ",,2,1143931.0,2-3,66-118, Lourdes, Belo Horizonte ,-19.929576,-43.9494157,0.7977362792999578
42,"Rua Mariano Procópio, 376 ",,2,464995.0,2,130, João Pinheiro, Belo Horizonte ,-19.9305746,-43.9939538,0.6832882943395191
43,Rua Flor,300.0,1,564000.0,3,68,,Belo Horizonte,-19.8339596,-43.8688074,0.3939342005657095
44,"Rua Sebastião Fabiano Dias, 233 ",1350.0,2,1108288.0,3,100, Belvedere, Belo Horizonte ,-19.9763098,-43.9441586,0.9170751342183078
45,"Rua Ramalho Ortigão, 649 ",,3,818741.0,3,200, Santa Branca, Belo Horizonte ,-19.8327541,-43.9664751,0.06407347606549008
46,Rua Lavras ,,4,4855983.0,4,391, São Pedro, Belo Horizonte ,-19.9481626,-43.9382658,0.5618646072581617
47,"Rua dos Timbiras, 3198 ",,2-3,,2-3,66-145, Barro Preto, Belo Horizonte ,-19.9302789,-43.9251047,0.37983228522255363
48,Rua Tabelião Ferreira de Carvalho ,650.0,2,724066.0,3,93, Cidade Nova, Belo Horizonte ,-19.8869404,-43.9290733,0.1411881988989797
49,"Rua José Hemetério Andrade, 558 ",400.0,1,381569.0,2,75, Buritis, Belo Horizonte ,-19.9786425,-43.9631117,0.9613967501218639
50,Rua Ubá ,700.0,2,764665.0,3,106, Colégio Batista, Belo Horizonte ,-19.9102519,-43.9356369,0.4129104135462791
51,"Rua Caraça, 507 ",1350.0,2,1287196.0,4,145, Serra, Belo Horizonte ,-19.9430505,-43.9141262,0.19301183688908263
52,"Rua Eli Seabra Filho, 215 ",400.0,2,797153.0,3,215, Buritis, Belo Horizonte ,-19.9756218,-43.9749864,0.5529356615693374
53,"Rua Juiz Costa Val, 118 ",,1,639271.0,2,66, Santa Efigênia, Belo Horizonte ,-19.9271004,-43.9192351,0.9489947036753132
54,"Rua Rio Grande do Sul, 2414 ",,1-2,788236.0,1-2,43, Santo Agostinho, Belo Horizonte ,-19.9227162,-43.946463,0.755946968438644
55,"Rua Pouso Alegre, 2615 ",494.0,1,357248.0,2,50, Horto, Belo Horizonte ,-19.9121319,-43.9296778,0.3412169880178719
56,"Rua Almirante Alexandrino, 761 ",1450.0,2,1156284.0,4,148, Gutierrez, Belo Horizonte ,-19.931528,-43.9558202,0.22605423331843866
57,"Rua Santa Rita Durão, 152 ",600.0,2,1567286.0,3,93, Funcionários, Belo Horizonte ,-19.9344756,-43.9346452,0.8733804994716841
58,"Rua José Cláudio Sanches, 120 ",180.0,1,272769.0,3,70, Califórnia, Belo Horizonte ,-19.9315944,-44.0187098,0.8595365749049493
59,"Rua Dois Mil Duzentos e Vinte e Um, 80 ",,1,149506.0,3,56, Granja De Freitas, Belo Horizonte ,-19.9119572,-43.8836351,0.5004986750670505
60,"Rua Itaparica, 221 ",300.0,2,1000953.0,4,103, Serra, Belo Horizonte ,-19.9358076,-43.9195007,0.7207566726634514
61,"Rua Bernardo Guimarães, 594 ",,2-3,1447243.0,3-4,87-134, Savassi, Belo Horizonte ,-19.927333,-43.9477878,0.4543105112779806
62,"Rua Coral, 69 ",1100.0,2,718168.0,3,92, São Pedro, Belo Horizonte ,-19.9485933,-43.9375473,0.4906932795089811
63,"Rua Anhangüera, 95 ",,2,432593.0,3,62, Santa Tereza, Belo Horizonte ,-19.9138422,-43.9206403,0.14930228100160625
64,"Rua José Quirino Rosa, 395 ",1000.0,4,3320508.0,4,600, Braúnas, Belo Horizonte ,-19.8489837,-44.0107497,0.06836069581180193
65,"Rua Alberto Bressane, 247 ",,3,1582825.0,4,375, São Lucas, Belo Horizonte ,-19.9300689,-43.9139527,0.724630858686602
66,Rua Daniel de Carvalho ,270.0,2,588473.0,4,142, Gutierrez, Belo Horizonte ,-19.9399033,-43.9587235,0.10325867127781407
67,"Rua Nunes Vieira, 292 ",600.0,1,699973.0,3,120, Santo Antônio, Belo Horizonte ,-19.9424153,-43.945949,0.7052361756254647
68,Rua Flor,500.0,2,590213.0,3,81,,Belo Horizonte,-19.8339596,-43.8688074,0.13609666389409436
69,"Rua Alvarenga Peixoto, 1250 ",,2-3,,2-3,76-208, Santo Agostinho, Belo Horizonte ,-19.929576,-43.9494157,0.8567677075193406
70,Rua Padre Rossini Cândido ,400.0,1,584587.0,3,105, Coração Eucarístico, Belo Horizonte ,-19.9242494,-43.9883924,0.8098410307579873
71,"Rua Ocidental, 126 ",320.0,1,179279.0,2,50, Serrano, Belo Horizonte ,-19.8859929,-44.0105181,0.2049495349049777
72,"Avenida Portugal, 2434 ",,1,863361.0,--,130, Santa Amélia, Belo Horizonte ,-19.8425871,-43.9698185,0.5114852916570422
73,Rua Vitório Marcola ,580.0,1,587789.0,3,96, Anchieta, Belo Horizonte ,-19.9489372,-43.9230864,0.8745305383139409
74,"Rua Doutor Rubens Guimarães, 256 ",680.0,2,1224437.0,4,190, Castelo, Belo Horizonte ,-19.8880639,-43.9981387,0.1312497076280763
75,"Rua Bambuí, 699 ",430.0,2,779759.0,2,72, Cruzeiro, Belo Horizonte ,-19.9521977,-43.9262572,0.6382007273246272
76,"Rua Ouro Preto, 1102 ",,2-3,1452348.0,3-4,103-128, Santo Agostinho, Belo Horizonte ,-19.9190479,-43.949625,0.18115296684140814
77,"Rua Nhanduti, 287 ",,10,3154320.0,18,1050, Caiçara Adeláide, Belo Horizonte ,-19.903732,-43.9746476,0.7260968434036846
78,"Rua Professor Euclydes Ferreira, 339 ",450.0,2,473702.0,2,61, Buritis, Belo Horizonte ,-19.9701337,-43.972571,0.5537180504568772
79,"Rua Manoel Passos, 743 ",,1,501122.0,4,149, Santa Cruz, Belo Horizonte ,-19.8775142,-43.9454267,0.9314762017039807
80,"Rua Rio Grande do Sul, 1212 ",1600.0,2,1889901.0,4,142, Santo Agostinho, Belo Horizonte ,-19.9227162,-43.946463,0.24940854478984642
81,"Rua Padre Francisco Arantes, 151 ",300.0,--,360596.0,3,75, Vila Paris, Belo Horizonte ,-19.9530867,-43.9514407,0.5575649274366816
82,"Rua Djezar Leite, 200 ",190.0,1,203147.0,2,46, Gameleira, Belo Horizonte ,-19.941864,-43.9942715,0.2859413488071887
83,"Rua Ouro Preto, 1240 ",,4,2268976.0,4,133, Santo Agostinho, Belo Horizonte ,-19.9190479,-43.949625,0.9419790681762346
84,"Avenida Coronel José Dias Bicalho, 456 ",320.0,2,607654.0,3,126, São José, Belo Horizonte ,-19.8590713,-43.9656056,0.048246956283915954
85,"Rua Vitória, 85 ",255.0,1,240524.0,2,60, Santa Cruz, Belo Horizonte ,-19.8805752,-43.9366111,0.239460530506859
86,"Rua Alberto Ambrósio dos Santos, 133 ",,--,639181.0,--,436, Mantiqueira, Belo Horizonte ,-19.8029566,-43.9777127,0.4139385314349112
87,"Rua Aurélio Lopes, 248 ",280.0,4,1613076.0,3,208, Diamante, Belo Horizonte ,-19.9954293,-44.0194475,0.5219720178288814
88,"Praça Um Mil e Cinquenta e Dois, 17 ",330.0,1,326808.0,2,64, Castelo, Belo Horizonte ,-19.876972950000003,-43.99427659322822,0.6717015680470956
89,"Rua Xapuri, 607 ",825.0,2,967001.0,3,89, Grajaú, Belo Horizonte ,-19.9437549,-43.9704569,0.44515901446074435
90,"Rua Grão Pará, 486 ",,2,1042900.0,2-3,64-93, Santa Efigênia, Belo Horizonte ,-19.9220194,-43.9214366,0.7936439758659332
91,"Rua Cláudio Manoel, 622 ",700.0,2,1303498.0,3,95, Funcionários, Belo Horizonte ,-19.9335821,-43.9329926,0.7273734773298494
92,Rua Santo Antônio ,198.0,1,181575.0,2,50, São João Batista, Belo Horizonte ,-19.8282851,-44.00698,0.714541501248126
93,Rua Xingu ,,4,1534188.0,4,300, Santa Lúcia, Belo Horizonte ,-19.9729011,-43.9504096,0.8014451739179819
94,"Rua Jacuí, 3480 ",,--,281324.0,1,55, Ipiranga, Belo Horizonte ,-19.8777593,-43.9290751,0.25295468837360313
95,Rua Doutor José Welinton ,140.0,1,245731.0,2,62, Planalto, Belo Horizonte ,-19.8353338,-43.943499,0.16958531307544833
96,"Rua Rio Grande do Norte, 1022 ",,2,1192260.0,3,84-87, Funcionários, Belo Horizonte ,-19.9302239,-43.9306127,0.29660957098344154
97,"Rua Barão de Coromandel, 789 ",550.0,3,868075.0,4,132, Barreiro, Belo Horizonte ,-19.8997258,-43.968762,0.574333947875045
98,Rua Izabel Alves Martins ,240.0,2,375913.0,2,62, Serrano, Belo Horizonte ,-19.882997,-44.0112702,0.3913106395347552
99,"Rua André Cavalcanti, 730 ",1565.0,3,2737864.0,4,141, Gutierrez, Belo Horizonte ,-19.9319115,-43.9611283,0.9037577300393939
100,"Rua Inspetor José Aparecido, 197 ",,6,1285123.0,8,600, São Bento, Belo Horizonte ,-19.9620119,-43.9528593,0.17498085479425685
101,"Rua Xangrilá, 75 ",1900.0,4,3769921.0,5,620, Pampulha, Belo Horizonte ,-19.7532823,-43.9417148,0.08800317048235617
102,"Rua Maria Borboleta, 1138 ",,1,707010.0,3,203, Jardim dos Comerciários, Belo Horizonte ,-19.7977477,-43.9764092,0.40338702205437404
103,"Rua Cachoeira de Minas, 114 ",920.0,3,748463.0,4,136, Gutierrez, Belo Horizonte ,-19.9465331,-43.9600379,0.006805931085804073
104,"Rua Felipe dos Santos, 576 ",,2,1346348.0,2-3,92-125, Lourdes, Belo Horizonte ,-19.9342841,-43.9462997,0.19920814116868957
105,Rua Cardoso ,580.0,2,879410.0,3,174, Santa Efigênia, Belo Horizonte ,-19.9198846,-43.9119026,0.27448316165302755
106,"Rua Pains, 59 ",423.0,1,628899.0,3,118, Sion, Belo Horizonte ,-19.9552539,-43.9311769,0.3315187995173119
107,Avenida Novara ,,6,3176767.0,6,800, Bandeirantes, Belo Horizonte ,-19.8602566,-43.9880343,0.7658018822872119
108,"Rua Dom João Antônio dos Santos, 000 ",,--,2870045.0,12,361, Coração Eucarístico, Belo Horizonte ,-19.9206452,-43.9879917,0.4801795207538654
109,"Rua São Paulo, 1905 ",1012.0,2,1522704.0,3,90, Lourdes, Belo Horizonte ,-19.914782,-43.9388011,0.2792903128222347
110,"Rua Tomé de Souza, 830 ",,--,63091.0,--,53, Savassi, Belo Horizonte ,-19.9388244,-43.9274451,0.6834862432607984
111,"Rua Martim de Carvalho, 440 ",,3,1308632.0,3,82-86, Santo Agostinho, Belo Horizonte ,-19.9311733,-43.9479411,0.5088176428190964
112,Rua Gipsita ,,--,623030.0,--,400, Candelaria, Belo Horizonte ,-19.8098463,-43.9755178,0.7552779305396655
113,"Avenida Engenheiro Carlos Goulart, 1278 ",650.0,6,5212418.0,4,653, Buritis, Belo Horizonte ,-19.9703438,-43.960916,0.6348618420273563
114,"Rua Antônio de Albuquerque, 894 ",900.0,1,1793501.0,2,79, Savassi, Belo Horizonte ,-19.936584,-43.9421163,0.9566741927065405
115,"Rua Santa Rita Durão, 614 ",600.0,1,1018602.0,4,140, Savassi, Belo Horizonte ,-19.9344756,-43.9346452,0.9835475697576838
116,"Rua dos Tupis, 274 ",585.0,--,414905.0,3,99, Centro, Belo Horizonte ,-19.9205221,-43.9435645,0.3672582248175439
117,"Rua Bernardo Guimarães, 199 ",,2,1035504.0,2-3,67-94, Funcionários, Belo Horizonte ,-19.927333,-43.9477878,0.5667751846227528
118,"Rua Cata Preta, 459 ",150.0,1,209165.0,2,43, João Pinheiro, Belo Horizonte ,-19.932214,-43.9986254,0.9522832862725878
119,"Rua Císsus, 148 ",,1,4858334.0,13,2250, Juliana, Belo Horizonte ,-19.809608,-43.9442964,0.567461858267869
120,"Rua Dona Queridinha, 285 ",,2,661663.0,3,80, Itapoã, Belo Horizonte ,-19.837092,-43.9623659,0.8577640766494353
121,"Rua Engenheiro Walter Kurrle, 15 ",3700.0,4,3449577.0,4,239, Belvedere, Belo Horizonte ,-19.9777773,-43.9433639,0.8950943770499049
122,"Rua Visconde de Mauá, 95 ",234.0,1,238057.0,2,44, Califórnia, Belo Horizonte ,-19.9258557,-44.0140584,0.9028377253219307
123,"Rua dos Inconfidentes, 766 ",,2,1158369.0,2-3,65-81, Savassi, Belo Horizonte ,-19.937775,-43.9268338,0.03208221916702336
124,"Rua Trifana, 247 ",750.0,2,735971.0,2,72, Serra, Belo Horizonte ,-19.9442676,-43.9178316,0.32262926532398306
125,Rua Cantor Luiz Gonzaga ,140.0,2,667837.0,3,191, Castelo, Belo Horizonte ,-19.889068,-44.0008325,0.8201313345593607
126,Rua Frei Caneca ,240.0,1,345955.0,3,85, Bonfim, Belo Horizonte ,-19.907047,-43.9574328,0.9294873571845015
127,"Rua Mendoza, 83 ",400.0,2,542935.0,3,150, São Pedro, Belo Horizonte ,-19.9513071,-43.937821,0.6760176171351132
128,"Avenida Augusto de Lima, 1121 ",502.0,--,226010.0,1,50, Barro Preto, Belo Horizonte ,-19.9230616,-43.9441556,0.5311366053259852
129,"Rua Monte Simplon, 405 ",,2,488313.0,2,63, Nova Suíssa, Belo Horizonte ,-19.9295351,-43.9824004,0.38258500127408634
130,"Rua Antônio de Albuquerque, 1.008 ",,2,,3,106-170, Savassi, Belo Horizonte ,-19.936584,-43.9421163,0.02783949383349482
131,"Rua Rio de Janeiro, 1165 ",399.0,1,498429.0,1,58, Centro, Belo Horizonte ,-19.9150685,-43.9375314,0.8673463294448063
132,"Rua Cipreste, 200 ",320.0,1,270006.0,2,47, Marajó, Belo Horizonte ,-19.9605408,-43.978523,0.4896320624638961
133,"Avenida Afonso Pena, 4040 ",2000.0,3,3417495.0,6,400, Cruzeiro, Belo Horizonte ,-19.9469331,-43.9212512,0.39164928799249354
134,"Rua Turibaté, 191 ",1000.0,3,1118421.0,3,130, Sion, Belo Horizonte ,-19.9564616,-43.931951,0.354525083240677
135,"Rua Serranos, 61 ",1800.0,3,1763339.0,4,248, Serra, Belo Horizonte ,-19.9438121,-43.916671,0.755595003364901
136,"Rua Jacuí, 766 ",,5,1637709.0,5,315, Floresta, Belo Horizonte ,-19.8777593,-43.9290751,0.7820790482809963
137,"Rua dos Inconfidentes, 597 ",,2,818958.0,2,58, Savassi, Belo Horizonte ,-19.937775,-43.9268338,0.2881459762625981
138,"Rua Sônia, 203, ",,4,582123.0,3,137, Penha, Belo Horizonte ,-19.8583398,-43.9335451,0.1946759418855798
139,"Rua Paraguai, 66 ",400.0,2,695090.0,2,63, Sion, Belo Horizonte ,-19.947766,-43.9338933,0.12144265340113936
140,"Rua Belfort Roxo, 275 ",200.0,1,257530.0,3,70, Grajaú, Belo Horizonte ,-19.9427834,-43.9663408,0.9781250674891544
141,"Rua Araguari, 1331 ",1650.0,3,2277880.0,3,135, Santo Agostinho, Belo Horizonte ,-19.9304083,-43.9514156,0.6814339019251479
142,Rua Dona Cidinha Stussi ,260.0,1,474405.0,3,73, Santa Amélia, Belo Horizonte ,-19.8408076,-43.9848631,0.8601312132761169
143,"Rua Aluísio Lobão Veras, 201 ",250.0,1,272414.0,3,72, Serrano, Belo Horizonte ,-19.8816511,-44.0073674,0.8440709306110667
144,"Rua dos Inconfidentes, 597 ",,2,814819.0,2,57, Funcionários, Belo Horizonte ,-19.937775,-43.9268338,0.542503019946696
145,"Rua Monte Castelo, 170 ",250.0,2,921888.0,3,136, Itapoã, Belo Horizonte ,-19.8361417,-43.9696521,0.8342487101420084
146,"Rua Augusto Clementino, 275 ",,4,1350878.0,6,326, Santa Amélia, Belo Horizonte ,-19.8341265,-43.981495,0.257317765920101
147,Rua Desembargador Custódio Lustosa ,300.0,2,976156.0,3,106, Itapoã, Belo Horizonte ,-19.8360944,-43.957278,0.4841888009936659
148,"Rua Professor Aníbal Mattos, 313 ",700.0,1,696184.0,3,110, Santo Antônio, Belo Horizonte ,-19.9480862,-43.944339,0.22877676662999802
149,Rua Orange ,1750.0,2,1774476.0,4,143, São Pedro, Belo Horizonte ,-19.9410165,-43.9356136,0.16022581076462672
150,"Rua dos Borges, 390 ",166.0,1,173332.0,2,49, São Gabriel, Belo Horizonte ,-19.8413359,-43.8776027,0.5554757943494028
151,"Rua Genoveva de Souza, 879 ",,2,,2,69, Sagrada Família, Belo Horizonte ,-19.9067997,-43.9216393,0.23177558700380307
152,Rua Visconde de Taunay ,256.0,2,307121.0,3,70, Santa Mônica, Belo Horizonte ,-19.9281876,-43.9199884,0.007913340671587554
153,Rua Dona Cidinha Stussi ,,4,1137228.0,4,254, Santa Amélia, Belo Horizonte ,-19.8408076,-43.9848631,0.604371175812113
154,"Rua Tomé de Souza, 95 ",,3,2166507.0,3,118, Savassi, Belo Horizonte ,-19.9388244,-43.9274451,0.7108475343587904
155,"Rua Buenos Aires, 213 ",350.0,--,371411.0,2,75, Sion, Belo Horizonte ,-19.9499624,-43.9360413,0.0868910191717287
156,"Rua Bolívia, 387 ",760.0,1,465026.0,3,115, São Pedro, Belo Horizonte ,-19.9488009,-43.9368301,0.07204350818461291
157,"Rua Stella Hanriot, 518 ",817.0,3,787201.0,3,86, Buritis, Belo Horizonte ,-19.9715766,-43.9715633,0.9272930401490989
158,"Rua Araguari, 1692 ",,2,1018562.0,2-3,66-86, Santo Agostinho, Belo Horizonte ,-19.9304083,-43.9514156,0.6120663212277097
159,"Rua Senador Pompéo, 89 ",550.0,1,564869.0,2,63, Serra, Belo Horizonte ,-19.9361721,-43.9202723,0.2973746244387968
160,"Rua Pioneiros da Paz, 55 ",,5,1661639.0,5,360, Santa Amélia, Belo Horizonte ,-19.8388031,-43.9796899,0.9113935505457832
161,"Rua Dona Cecília, 86 ",1941.0,4,2245163.0,5,220, Serra, Belo Horizonte ,-19.9377676,-43.922114,0.22581518301026493
162,"Avenida Álvares Cabral, 397 ",,--,1556780.0,--,240, Lourdes, Belo Horizonte ,-19.9244866,-43.9354151,0.11986539280292252
163,"Rua Paracatu, 727 ",,2,1424157.0,1,180, Barro Preto, Belo Horizonte ,-19.9198913,-43.9512169,0.8679782531678951
164,"Avenida Vilarinho, 1731 ",355.0,1,283729.0,3,1000, Venda Nova, Belo Horizonte ,-19.8196297,-43.9521259,0.34915904675476883
165,"Rua Bauxita, 114 ",,2-3,,3,74-141, Santa Tereza, Belo Horizonte ,-19.9129781,-43.9189177,0.8578757615135651
166,"Rua Alvarenga Peixoto, 1285 ",350.0,1,744147.0,3,129, Santo Agostinho, Belo Horizonte ,-19.929576,-43.9494157,0.4484114340887412
167,"Avenida José Cândido da Silveira, 509 ",,--,1344362.0,--,360, Cidade Nova, Belo Horizonte ,-19.8772474,-43.9104561,0.20301471838324991
168,Rua Mário de Andrade Gomes ,,2,457932.0,4,150, Sagrada Família, Belo Horizonte ,-19.9109591,-43.9187938,0.7418361705991587
169,"Rua Alcântara, 423 ",,2,1276472.0,4,178, Nova Granada, Belo Horizonte ,-19.9374107,-43.9712444,0.604289952044007
170,"Rua São Romão, 209 ",450.0,2,689308.0,3,118, Santo Antônio, Belo Horizonte ,-19.9450687,-43.9402399,0.5076429319966331
171,"Rua dos Inconfidentes, 732 ",850.0,1,1702891.0,3,200, Savassi, Belo Horizonte ,-19.937775,-43.9268338,0.35260373757355645
172,"Rua Gonçalves Dias, 31 ",,3,,3,106-170, Funcionários, Belo Horizonte ,-19.9311846,-43.9376407,0.1531783607753211
173,"Rua Senhora da Paz, 1013 ",,2,1072316.0,5,211, Cachoeirinha, Belo Horizonte ,-19.8934302,-43.9446795,0.16995498967739264
174,"Rua Carioca, 750 ",,3,772810.0,4,97, Padre Eustáquio, Belo Horizonte ,-19.9158375,-43.9876115,0.040137592408314715
175,"Rua Aramirim, 35 ",720.0,2,703134.0,3,66, Nova Suíssa, Belo Horizonte ,-19.9329559,-43.9727671,0.9175230829804611
176,Rua dos Otoni ,921.0,2,1360945.0,3,101, Santa Efigênia, Belo Horizonte ,-19.86409,-43.9327907,0.019801238481672923
177,"Rua Expedicionário Salvador Alves, 144 ",160.0,1,230571.0,2,55, Itatiaia, Belo Horizonte ,-19.8703915,-44.0136668,0.5285745402108339
178,"Alameda das Palmeiras, 95 ",,13,3804197.0,7,800, São Luíz, Belo Horizonte ,-19.857305,-43.9715466,0.0587115625374357
179,"Rua Fernandes Tourinho, 221 ",,2,,2,63-67, Savassi, Belo Horizonte ,-19.9393917,-43.9358894,0.3084182457604381
180,"Rua Francisco Augusto Rocha, 101 ",400.0,2,443792.0,3,69, Planalto, Belo Horizonte ,-19.8259057,-43.9535056,0.12259632855757685
181,"Rua Nelson, 319 ",,--,501612.0,--,50, União, Belo Horizonte ,-19.8821223,-43.9237077,0.4054521841246054
182,"Rua Conceição do Pará, 556 ",,--,3785840.0,--,853, Santa Inês, Belo Horizonte ,-19.894933,-43.9115401,0.8307509130651387
183,"Rua Deputado Bernardino de Sena Figueiredo, 1177 ",,3,855458.0,3,150, Cidade Nova, Belo Horizonte ,-19.8840778,-43.9282818,0.4061022413724732
184,Rua Itabira ,220.0,1,299934.0,3,60, Colégio Batista, Belo Horizonte ,-19.9076379,-43.94024,0.3182582765771471
185,"Praça Afonso Arinos, 176 ",900.0,1,837373.0,3,150, Centro, Belo Horizonte ,-19.9253271,-43.93653147605973,0.16497957686783293
186,"Rua Dante, 133 ",,2,870484.0,4,132, São Lucas, Belo Horizonte ,-19.9305605,-43.9206684,0.018782386883600566
187,"Rua Sergipe, 15 ",500.0,--,378325.0,2,77, Funcionários, Belo Horizonte ,-19.9276923,-43.9354354,0.4643868556180948
188,"Rua Oliveiro Marciano, 315 ",300.0,1,168958.0,2,45, Diamante, Belo Horizonte ,-19.992021,-44.0224834,0.2713831012216914
189,"Rua Iraí, 577 ",1000.0,2,1019182.0,4,140, Vila Paris, Belo Horizonte ,-19.9463585,-43.9507721,0.8509585681275952
190,Rua Alga Vermelha ,270.0,1,398394.0,3,70, Floramar, Belo Horizonte ,-19.8284095,-43.9397953,0.7174811778738369
191,"Rua dos Aeronautas, 400 ",270.0,2,477506.0,3,79, Liberdade, Belo Horizonte ,-19.8589699,-43.9558088,0.937654372053904
192,"Rua Alga Vermelha, 120 ",389.0,1,463542.0,3,79, Jardim Guanabara, Belo Horizonte ,-19.8284095,-43.9397953,0.036721932830865445
193,"Rua Prados, 567 ",,2,,2,53-106, Carlos Prates, Belo Horizonte ,-19.908874,-43.9581104,0.8984715176388477
194,Rua São Bento ,700.0,2,1526598.0,3,230, Graça, Belo Horizonte ,-19.902532,-43.9179091,0.7430606471172767
195,"Avenida Afonso Pena, 941 ",,--,2928145.0,--,804, Centro, Belo Horizonte ,-19.9469331,-43.9212512,0.26209655891519223
196,Rua Moreira Antunes ,,--,220447.0,2,100, Beija Flor, Belo Horizonte ,-19.8336238,-43.8714023,0.02233844600553969
197,"Rua Pastor Achilles Barbosa, 381 ",225.0,1,220434.0,2,44, Palmares, Belo Horizonte ,-19.8719417,-43.9377335,0.4809581934736462
198,Rua Itamaracá ,,3,1057680.0,7,292, Concórdia, Belo Horizonte ,-19.9032036,-43.9339234,0.13347104056738268
199,Rua Rádio ,,2-3,609437.0,2-3,63-83, São Lucas, Belo Horizonte ,-19.933145,-43.9191379,0.5292615289357038
200,Rua Raimundo Albergaria Filho ,50.0,1,512501.0,4,130, Copacabana, Belo Horizonte ,-19.8382317,-43.9943135,0.9743232851851874
201,"Rua dos Timbiras, 1936 ",,--,284527.0,--,33, Lourdes, Belo Horizonte ,-19.9302789,-43.9251047,0.9549254509271278
202,"Rua Álvares de Azevedo, 153 ",,4,1103231.0,3,245, Floresta, Belo Horizonte ,-19.908646,-43.9397161,0.0433508401573105
203,"Rua Monte Castelo, 170 ",250.0,2,763353.0,3,160, Itapoã, Belo Horizonte ,-19.8361417,-43.9696521,0.07914397412020258
204,"Rua Gonçalves Crespo, 192 ",,--,372169.0,--,264, Santa Maria, Belo Horizonte ,-19.93697,-44.0100163,0.27784915026682155
205,"Rua Recy Souza Paiva, 193 ",150.0,2,441766.0,3,60, Planalto, Belo Horizonte ,-19.8349727,-43.9541979,0.21232528593730138
206,"Rua Desembargador Custódio Lustosa, 56 ",300.0,2,797804.0,3,93, Itapoã, Belo Horizonte ,-19.8360944,-43.957278,0.39719422273514493
207,"Rua Alumínio, 50 ",,3-4,,3-4,164-231, Serra, Belo Horizonte ,-19.9390308,-43.9256143,0.042650660493893655
208,"Avenida João Pinheiro, 581 ",615.0,1,594574.0,1,69, Funcionários, Belo Horizonte ,-19.9268305,-43.9366543,0.9392434567256223
209,"Rua Alagoas, 1182 ",300.0,2,860245.0,2,98, Savassi, Belo Horizonte ,-19.9314695,-43.9350021,0.028787568286424814
210,Rua Caraça ,1800.0,5,2334155.0,4,246, Serra, Belo Horizonte ,-19.9430505,-43.9141262,0.9700280326614332
211,"Rua Abel Araújo, 480 ",,6,2493917.0,4,215, São Bento, Belo Horizonte ,-19.9586719,-43.9548575,0.33598615262934173
212,"Rua Salinas, 683 ",,2,1333358.0,5,264, Floresta, Belo Horizonte ,-19.91359,-43.9138661,0.6961252388189346
213,"Rua Alumínio, 50 ",,3,,3-4,226-231, Serra, Belo Horizonte ,-19.9390308,-43.9256143,0.007091272566641549
214,"Avenida Getúlio Vargas, 887 ",,4,1662349.0,--,154, Savassi, Belo Horizonte ,-19.9357431,-43.9313935,0.1567035410097134
215,"Rua Cláudio Gomes de Souza, 321 ",330.0,2,397671.0,3,65, Palmares, Belo Horizonte ,-19.8712648,-43.9389073,0.3620292610289112
216,Rua Henrique Cabral ,570.0,4,789579.0,4,110, São Luíz, Belo Horizonte ,-19.8528774,-43.960721,0.9633161685258111
217,"Avenida Francisco Sales, 1614 ",,--,2129400.0,5,262, Santa Efigênia, Belo Horizonte ,-19.9221979,-43.927814,0.8300020963182321
218,"Rua São Domingos do Prata, 570 ",,3-4,,4,143, Santo Antônio, Belo Horizonte ,-19.9450923,-43.9374086,0.5960727593569233
219,"Rua Santa Rita Durão, 321 ",,--,239183.0,--,35, Funcionários, Belo Horizonte ,-19.9344756,-43.9346452,0.9591355939049495
220,Rua Pastor Achilles Barbosa ,350.0,2,456058.0,3,74, Palmares, Belo Horizonte ,-19.8719417,-43.9377335,0.4300251610042617
221,"Rua Rúbia Mara Barbosa, 45 ",250.0,1,224703.0,2,45, Diamante, Belo Horizonte ,-19.9905509,-44.0224837,0.9522654598651147
222,Rua Pires da Mota ,200.0,1,339532.0,3,110, Madre Gertrudes, Belo Horizonte ,-19.9486642,-44.0028674,0.35558579271983093
223,"Avenida Dom Pedro II, 57 ",,--,1149438.0,1,700, Carlos Prates, Belo Horizonte ,-19.9139307,-43.9537918,0.6104808837128634
224,"Rua Dom Lúcio Antunes, 448 ",320.0,2,1432054.0,3,221, Coração Eucarístico, Belo Horizonte ,-19.9259176,-43.9912562,0.4564280971897817
225,"Rua São Domingos do Prata, 570 ",,3-4,1921293.0,4,143-173, Santo Antônio, Belo Horizonte ,-19.9450923,-43.9374086,0.09418803612505866
226,Rua Oligisto ,150.0,2,532158.0,3,75, Santa Tereza, Belo Horizonte ,-19.9117656,-43.913358,0.3225115690975443
227,"Avenida Cristiano Machado, 640 ",,--,173020.0,--,28, Cidade Nova, Belo Horizonte ,-19.8475195,-43.9324755,0.9324184417373714
228,"Rua José Oscar Barreira, 261 ",200.0,2,836737.0,3,144, Itapoã, Belo Horizonte ,-19.8384733,-43.9556921,0.1564938406650156
229,Rua Monte Alverne ,600.0,1,507945.0,3,78, Floresta, Belo Horizonte ,-19.8489071,-43.9292352,0.8126808672460477
230,"Rua Doutor Benedito Xavier, 1221 ",,5,803097.0,5,250, Providência, Belo Horizonte ,-19.8455372,-43.9183907,0.23212904104575116
231,"Rua Major Lopes, 475 ",,2,1153694.0,2-3,68-97, São Pedro, Belo Horizonte ,-19.9475495,-43.9353399,0.31210801307599834
232,"Rua Cláudio Manoel, 622 ",700.0,3,2259665.0,4,159, Funcionários, Belo Horizonte ,-19.9335821,-43.9329926,0.47541489226533395
233,Rua Bolivar Mineiro ,300.0,2,917331.0,3,150, Dona Clara, Belo Horizonte ,-19.8597149,-43.9436186,0.509802553515091
234,"Avenida Professor Mário Werneck, 1461 ",,2,551309.0,3,75, Estoril, Belo Horizonte ,-19.9758245,-43.9684461,0.2512052255540901
235,Rua Alessandra Salum Cadar ,400.0,2,970552.0,3,145, Buritis, Belo Horizonte ,-19.9760471,-43.9703167,0.41826300193025645
236,"Rua dos Carijós, 244 ",,--,846124.0,--,330, Centro, Belo Horizonte ,-19.9199467,-43.9351965,0.28165952702306285
237,"Rua Doutor Rubens Guimarães, 93 ",350.0,2,508286.0,3,92, Castelo, Belo Horizonte ,-19.8880639,-43.9981387,0.5519511558250336
238,"Rua Congonhas, 132 ",,3-4,2195297.0,4,147-157, São Pedro, Belo Horizonte ,-19.9433887,-43.941144,0.39750703804454524
239,Rua José Silva Passos ,400.0,2,345902.0,2,65, Nova Vista, Belo Horizonte ,-19.8864022,-43.8921415,0.15814056056774983
240,Rua Bonaparte ,500.0,2,686443.0,3,98, Padre Eustáquio, Belo Horizonte ,-19.9151552,-43.9728782,0.6543871896038426
241,"Rua Sargento João Ovídio, O ",,--,306249.0,--,401, Jonas Veiga, Belo Horizonte ,-19.9190624,-43.895964,0.7788134493143999
242,"Rua Nossa Senhora dos Remédios, 251 ",,--,386810.0,--,727, Ouro Minas, Belo Horizonte ,-19.8437218,-43.9041436,0.051713619964286583
243,"Rua das Clarissas, 31 ",205.0,1,217652.0,2,51, Planalto, Belo Horizonte ,-19.839381,-43.9415232,0.16163008510520604
244,"Rua Congonhas, 132 ",,3-4,2085367.0,4,147-157, São Pedro, Belo Horizonte ,-19.9433887,-43.941144,0.7221325721175325
245,"Rua dos Timbiras, 395 ",650.0,2,1191377.0,2,114, Funcionários, Belo Horizonte ,-19.9302789,-43.9251047,0.31048880679835333
246,"Rua dos Carijós, 126 ",,--,992287.0,--,960, Centro, Belo Horizonte ,-19.9199467,-43.9351965,0.025416250122045736
247,"Rua Júlio de Castilho, 1080 ",,--,2668674.0,--,1370, Cinqüentenário, Belo Horizonte ,-19.9610731,-43.9808977,0.16600038023117347
248,Avenida Prudente de Morais ,,--,288346.0,--,80, Cidade Jardim, Belo Horizonte ,-19.9474128,-43.9485341,0.0055828733196434666
249,Rua Professor José Carvalho Lopes ,50.0,3,1169403.0,4,410, Planalto, Belo Horizonte ,-19.8380539,-43.9439825,0.694031414595344
250,"Rua Estácio Rodrigues, lote ",,--,369218.0,--,360, Havaí, Belo Horizonte ,-19.9587201,-43.970714,0.538057150856806
251,"Rua Marabá, 44 ",,2,778048.0,3,76, Santo Antônio, Belo Horizonte ,-19.9452195,-43.9478402,0.29241826459997167
252,"Rua Piauí, 1702 ",,3,2773672.0,8,300, Funcionários, Belo Horizonte ,-19.9385064,-43.9287698,0.32110964688546795
253,"Rua dos Inconfidentes, 443 ",1850.0,4,2894680.0,4,174, Funcionários, Belo Horizonte ,-19.937775,-43.9268338,0.8150201420264298
254,Rua Professora Mírian Silvestre ,90.0,2,208860.0,2,60, Serra Verde, Belo Horizonte ,-19.7967838,-43.9523668,0.28970681211038085
255,"Rua José Oscar Barreira, 261 ",200.0,4,1073960.0,4,184, Itapoã, Belo Horizonte ,-19.8384733,-43.9556921,0.30484732127961167
256,Rua Alessandra Salum Cadar ,,1,170068.0,--,25, Buritis, Belo Horizonte ,-19.9760471,-43.9703167,0.3454117310214826
257,"Rua Carlos Schettino, 284 ",150.0,1,213419.0,2,58, Gameleira, Belo Horizonte ,-19.9427423,-43.9951065,0.9898424257600875
258,"Rua Conselheiro Andrade Figueira, 30 ",,2,710146.0,2-3,63-83, Gutierrez, Belo Horizonte ,-19.940385,-43.956856,0.3623331692120729
259,Rua Olívia Maria de Jesus ,,4,641137.0,5,300, Floramar, Belo Horizonte ,-19.8333087,-43.9362641,0.8729161389094751
260,"Rua dos Tupinambás, 179 ",,--,88115.0,--,42, Centro, Belo Horizonte ,-19.9185301,-43.9357154,0.44353142750175545
261,Rua Júlia Lopes de Almeida ,,3,1059290.0,9,469, Santa Maria, Belo Horizonte ,-19.9369661,-44.0103308,0.9021324015749815
262,Avenida Guarapari ,240.0,1,305811.0,3,73, Santa Amélia, Belo Horizonte ,-19.8457686,-43.9775604,0.120417595017422
263,Avenida do Contorno ,,1,740267.0,--,61, Funcionários, Belo Horizonte ,-19.9156428,-43.9453796,0.7502688848863688
264,"Rua Lavras, 825 ",,2,973496.0,2,110, São Pedro, Belo Horizonte ,-19.9481626,-43.9382658,0.2498880474595797
265,Rua Joaquim Nabuco ,294.0,2,830138.0,3,131, Nova Suíssa, Belo Horizonte ,-19.9356554,-43.9771593,0.8591104759964102
266,Rua Frei Manoel da Cruz ,1200000.0,2,1255637.0,3,125, Liberdade, Belo Horizonte ,-19.860945,-43.9503519,0.41488250852251196
267,"Rua São Miguel, 642 ",190.0,--,257426.0,3,68, Itapoã, Belo Horizonte ,-19.8431613,-43.956633,0.19245620532475793
268,"Rua Professor Fernando de Magalhães, 121 ",,--,563908.0,--,360, Álvaro Camargos, Belo Horizonte ,-19.9153831,-44.0082815,0.27815040160720295
269,Rua Desembargador Edésio Fernandes ,,10,9019686.0,--,550, Estoril, Belo Horizonte ,-19.9698548,-43.9558963,0.2746072931667368
270,Rua Alberto Nepomuceno ,,2,449658.0,2,78, Estrela Dalva, Belo Horizonte ,-19.9656282,-43.9751672,0.679433608556452
271,"Rua Lavras, 825 ",,1,575265.0,2,50-110, São Pedro, Belo Horizonte ,-19.9481626,-43.9382658,0.40394608405517474
272,"Rua Mato Grosso, 355 ",,--,148097625.0,--,31, Centro, Belo Horizonte ,-19.9173124,-43.9464026,0.39212498392235084
273,"Rua Contria, 155 ",350.0,2,685994.0,4,150, Calafate, Belo Horizonte ,-19.9288646,-43.9703277,0.06441499660093453
274,"Rua Dom Pedrito, 256 ",225.0,1,290506.0,2,55, Nova Vista, Belo Horizonte ,-19.8850209,-43.9034328,0.8573715761338004
275,Rua Esmeraldo Botelho ,280.0,2,966133.0,3,100, Buritis, Belo Horizonte ,-19.979412,-43.9679018,0.6541994079090058
276,"Rua Rio Negro, 820 ",,2-3,617108.0,3,73-81, Barroca, Belo Horizonte ,-19.9290593,-43.9661029,0.26110147605645706
277,Rua Armando Greco ,200.0,1,213182.0,3,62, Frei Leopoldo, Belo Horizonte ,-19.8085515,-43.9357313,0.9095891679567617
278,"Rua Bernardo Guimarães, 2014 ",800.0,1,811456.0,2,80, Lourdes, Belo Horizonte ,-19.927333,-43.9477878,0.9331769830591341
279,"Avenida Otacílio Negrão de Lima, 13330 ",,--,1254971.0,--,1000, Bandeirantes, Belo Horizonte ,-19.8609803,-43.9768403,0.6200999252174914
280,"Rua Póvoa de Varzim, 66 ",,--,1790194.0,--,1000, Paquetá, Belo Horizonte ,-19.8700528,-43.9935356,0.9346248918545903
281,Rua Garret ,600.0,2,1172545.0,3,110, Grajaú, Belo Horizonte ,-19.9440107,-43.9712955,0.9647447533926925
282,Rua Espírito Santo ,,1,464914.0,--,35, Lourdes, Belo Horizonte ,-18.8647762,-41.1217768,0.6228477876645614
283,"Rua João da Cunha, 98 ",,2,885923.0,3,80, Prado, Belo Horizonte ,-19.9290311,-43.9709895,0.7621219618510162
284,Rua Ceuta ,,7,799035.0,3,222, Canaã, Belo Horizonte ,-19.7942371,-43.948405,0.41478683043386844
285,"Rua Fluorina, 1660 ",,3,516402.0,2,120, Paraíso, Belo Horizonte ,-19.9157731,-43.9051504,0.5011548600131897
286,Rua Paulo Piedade Campos ,798.0,2,925154.0,4,105, Estoril, Belo Horizonte ,-19.9616947,-43.9652056,0.49259982721674755
287,Rua Itapoã ,,--,4247871.0,--,2400, Guarani, Belo Horizonte ,-19.8025366,-44.0251495,0.799641536911369
288,"Rua Cristina, 57 ",,3,,4,145-157, Anchieta, Belo Horizonte ,-19.9472539,-43.9352691,0.37623182956503676
289,Avenida Silviano Brandão ,,4,3889503.0,--,507, Floresta, Belo Horizonte ,-19.9074223,-43.9107081,0.11286454924767164
290,Rua Patagônia ,650.0,2,706866.0,4,175, Sion, Belo Horizonte ,-19.9592013,-43.9350687,0.9807794601341928
291,"Rua Livramento, lotes 10 e 12 ",,--,1245531.0,--,635, Alto dos Pinheiros, Belo Horizonte ,-19.9353123,-44.0000188,0.3230064224315171
292,"Rua Rio de Janeiro, 1186 ",550.0,1,1737.0,2,65, Centro, Belo Horizonte ,-19.9150685,-43.9375314,0.581948490978298
293,Rua Arthur Lourenço ,150.0,2,430254.0,3,85, Barreiro, Belo Horizonte ,-19.9799149,-44.0260075,0.32247044161184013
294,"Rua Agostinho Bretas, 11 ",,1-2,,2-3,72, Caiçaras, Belo Horizonte ,-19.9013306,-43.97,0.8557238275616474
295,Rua Maranhão ,,3,2076412.0,4,154, Funcionários, Belo Horizonte ,-19.9265829,-43.9240941,0.865213567658679
296,"Rua Ajax Correa Rabello, 31 ",,4,2163101.0,4,380, Mangabeiras, Belo Horizonte ,-19.9598514,-43.9168918,0.3847426205061939
297,Rua São Tomáz de Aquino ,360.0,2,666221.0,3,180, São Pedro, Belo Horizonte ,-19.9504807,-43.9400618,0.19698908175913132
298,Rua Itajubá ,312.0,3,569913.0,2,110, Sagrada Família, Belo Horizonte ,-19.9111658,-43.9295436,0.6308745126639342
299,Rua Sergipe ,1150.0,2,1370613.0,3,90, Lourdes, Belo Horizonte ,-19.9276923,-43.9354354,0.4217737146206746
300,Rua Vicente Risola ,,7,4207839.0,16,795, Santa Inês, Belo Horizonte ,-19.8910177,-43.9084895,0.6884416583411748
301,Rua Doutor Sylvio Menicucci ,400.0,2,479904.0,3,101, Castelo, Belo Horizonte ,-19.8851177,-44.0059034,0.7623547470286544
302,"Rua Bambuí, 893 ",,2,1153259.0,3,86, Santo Antônio, Belo Horizonte ,-19.9521977,-43.9262572,0.5095689999887631
303,Rua Lobo Leite ,,4,1001287.0,4,360, Heliópolis, Belo Horizonte ,-19.837781,-43.9402868,0.25041665967364246
304,"Rua Fausto Nunes Vieira, 1 ",3000.0,4,3366793.0,4,430, Belvedere, Belo Horizonte ,-19.9732179,-43.9362799,0.22264460108219175
305,Rua Duarte da Costa ,269.0,2,747395.0,3,221, Jaraguá, Belo Horizonte ,-19.8631014,-43.9522357,0.49838511461517765
306,Rua Alberto Bressane ,470.0,2,485645.0,3,150, São Lucas, Belo Horizonte ,-19.9300689,-43.9139527,0.5629735510828107
307,"Rua dos Aimorés, 1330 ",875.0,2,1243423.0,2,72, Funcionários, Belo Horizonte ,-19.9245137,-43.9538877,0.30384211563609365
308,"Rua Estados Unidos, 132 ",,3-4,1762029.0,4,133-160, Sion, Belo Horizonte ,-19.9522548,-43.937375,0.35470097405509116
309,Rua dos Timbiras ,620.0,1,533845.0,3,84, Lourdes, Belo Horizonte ,-19.9302789,-43.9251047,0.6053253189924097
310,"Rua Gonçalves Dias, 2565 ",,2,957894.0,2,61, Santo Agostinho, Belo Horizonte ,-19.9311846,-43.9376407,0.40350330387431577
311,Rua dos Aimorés ,850.0,1,1294031.0,3,182, Funcionários, Belo Horizonte ,-19.9245137,-43.9538877,0.9817639523890827
312,Rua Itaúna ,530.0,2,2483.0,3,91, Floresta, Belo Horizonte ,-19.9067446,-43.9329186,0.28776480835931484
313,"Rua Sílvio Menicucci, 157 ",600.0,2,727710.0,3,108, Buritis, Belo Horizonte ,-19.97946,-43.978228,0.21278319226388143
314,"Rua Assunção, 245 ",580.0,2,661646.0,3,110, Sion, Belo Horizonte ,-19.9539031,-43.9378663,0.21433268107094283
315,"Rua Estados Unidos, 132 ",,3-4,2778794.0,4-5,275, Sion, Belo Horizonte ,-19.9522548,-43.937375,0.47876672403540277
316,Rua Odilon Braga ,1534.0,2,5476.0,5,289, Anchieta, Belo Horizonte ,-19.9524463,-43.9223112,0.4090246715027668
317,Rua Tobias Barreto ,,2,605690.0,3,114, Santa Mônica, Belo Horizonte ,-19.9302388,-43.9757789,0.6478938513751206
318,Rua Flavita Bretas ,620.0,2,698136.0,3,120, Luxemburgo, Belo Horizonte ,-19.946804,-43.9575754,0.4448464558905888
319,"Rua Bambuí, 1188 ",,2,858956.0,1-2,54-74, Anchieta, Belo Horizonte ,-19.9521977,-43.9262572,0.6864724996464441
320,Rua Monte Carmelo ,250.0,2,682549.0,2,153, Floresta, Belo Horizonte ,-19.9104485,-43.927612,0.3758159745089996
321,"Avenida dos Bandeirantes, 1.190 ",,--,4648698.0,--,--, Comiteco, Belo Horizonte ,-19.9572301,-43.9319731,0.9197376955676221
322,Rua Professor Pimenta da Veiga ,550.0,2,802982.0,4,177, Cidade Nova, Belo Horizonte ,-19.8891296,-43.9242268,0.30960367683526746
323,"Rua Alvarenga Peixoto, 1040 ",2000.0,3,2363855.0,3,130, Lourdes, Belo Horizonte ,-19.929576,-43.9494157,0.9386629720204095
324,"Rua Cardeal Stepinac, 232 ",,3,1650364.0,4,140, Cidade Nova, Belo Horizonte ,-19.8852186,-43.9266104,0.5982687963443278
325,Rua Professor Magalhães Drumond ,450.0,1,1783.0,3,120, Santo Antônio, Belo Horizonte ,-19.939075,-43.9428019,0.8856409692311913
326,Rua Leopoldina ,574.0,1,462973.0,3,80, Santo Antônio, Belo Horizonte ,-19.9475349,-43.9422533,0.5743257841344577
327,Rua José Silveira ,790.0,2,1470275.0,3,168, Buritis, Belo Horizonte ,-19.9734616,-43.9745497,0.7621996772111783
328,Rua Manhumirim ,500.0,2,747234.0,3,116, Caiçaras, Belo Horizonte ,-19.9064111,-43.9714806,0.35613566698467325
329,"Rua Mucuri, 231 ",,3,1087195.0,3,211, Floresta, Belo Horizonte ,-19.9187008,-43.9268711,0.8949095442755042
330,Rua Curitiba ,2975.0,3,2917188.0,4,273, Lourdes, Belo Horizonte ,-19.9122312,-43.9396634,0.6687514084829712
331,"Rua Cardeal Stepinac, 232 ",,3-4,1615021.0,4,140, Cidade Nova, Belo Horizonte ,-19.8852186,-43.9266104,0.46258551062815134
332,"Rua Laura Soares Carneiro, 71 ",450.0,2,898366.0,3,165, Buritis, Belo Horizonte ,-19.9774397,-43.9651219,0.9782175344117388
333,"Rua João Antônio Azeredo, 150 ",,4,4459614.0,4,378, Belvedere, Belo Horizonte ,-19.9709536,-43.9409204,0.23328440652790694
334,"Rua Rosa de Pedra, 26 ",,2,442228.0,3,100, Etelvina Carneiro, Belo Horizonte ,-19.8115016,-43.9362966,0.05570570078887338
335,"Rua Desembargador José Burnier, 91 ",380.0,1,2893.0,3,102, Castelo, Belo Horizonte ,-19.8905883,-43.9979285,0.5710506698467538
336,"Rua La Plata, 166 ",,3-4,,3-4,185-238, Sion, Belo Horizonte ,-19.9542202,-43.9328012,0.14997726914641984
337,"Rua Engenheiro Zoroastro Torres, 384 ",997.0,1,473254.0,3,98, Santo Antônio, Belo Horizonte ,-19.9501613,-43.9450108,0.2679424310383738
338,Rua São Paulo ,320.0,--,288030.0,1,55, Centro, Belo Horizonte ,-19.914782,-43.9388011,0.521219396755448
339,Rua Antônio de Albuquerque ,,3,1544345.0,3,130, Lourdes, Belo Horizonte ,-19.936584,-43.9421163,0.031035345077973675
340,"Rua Engenheiro Alberto Pontes, 0 ",225.0,1,1481.0,3,60, Buritis, Belo Horizonte ,-19.9689271,-43.9668895,0.3954846419616953
341,"Rua São Paulo, 1031 ",320.0,--,256241.0,2,60, Centro, Belo Horizonte ,-19.914782,-43.9388011,0.6473153931114489
342,"Rua La Plata, 166 ",,3,,3-4,237-238, Sion, Belo Horizonte ,-19.9542202,-43.9328012,0.9779060924890368
343,Rua João Arantes ,352.0,1,458240.0,3,76, Cidade Nova, Belo Horizonte ,-19.8843894,-43.9244911,0.4560052381276313
344,Rua da Bahia ,,--,209053.0,3,110, Centro, Belo Horizonte ,-19.9151776,-43.9347647,0.6140476405149543
345,Rua José Ferreira Cascão ,7000.0,5,7721702.0,4,570, Belvedere, Belo Horizonte ,-19.9787549,-43.9444515,0.5249289491143485
346,Rua México ,,1,281480.0,2,90, Jardim Leblon, Belo Horizonte ,-19.8323096,-43.9935167,0.9778764704027963
347,Rua Professora Bartira Mourão ,430.0,2,743915.0,3,155, Buritis, Belo Horizonte ,-19.9691439,-43.9679544,0.9986210105497334
348,"Rua Helianto, 239 ",,2,763178.0,3,79, Nova Suíssa, Belo Horizonte ,-19.9313486,-43.9720668,0.9433142198508851
349,"Rua Ametista, 0 ",160.0,1,551116.0,3,127, Prado, Belo Horizonte ,-19.9239225,-43.960094,0.5296321948258933
350,Rua Colômbia ,290.0,2,503065.0,3,142, Sion, Belo Horizonte ,-19.9521465,-43.9379054,0.1792244967336718
351,"Rua Gustavo Ladeira, 11 ",485.0,2,384610.0,3,72, Castelo, Belo Horizonte ,-19.8798769,-43.9917158,0.8341462693830897
352,Rua dos Geólogos ,,3,537559.0,4,242, Alípio de Melo, Belo Horizonte ,-19.895047,-44.0001242,0.9457505198392759
353,Rua Flor,,2-4,743943.0,3,75,,Belo Horizonte,-19.8339596,-43.8688074,0.4778691313112956
354,Rua Doutor Plínio de Morais ,583.0,5,1570521.0,4,156, Cidade Nova, Belo Horizonte ,-19.8902515,-43.925024,0.3805851952397665
355,Rua Doutor Juvenal dos Santos ,900.0,2,1003348.0,3,120, Luxemburgo, Belo Horizonte ,-19.9508257,-43.9585445,0.804093041263498
356,Rua Assunção ,580.0,2,656243.0,3,110, Sion, Belo Horizonte ,-19.9539031,-43.9378663,0.12276519557658938
357,Rua Póvoa de Varzim ,279.0,1,224943.0,2,44, Ouro Preto, Belo Horizonte ,-19.8700528,-43.9935356,0.8391282710412378
358,"Rua Ester de Lima, 745 ",,2,546109.0,3,110, Santa Cruz, Belo Horizonte ,-19.8766925,-43.9399981,0.14509032820482803
359,"Rua Oliveiro Marciano, 88 ",,4,757444.0,1,360, Barreiro, Belo Horizonte ,-19.992021,-44.0224834,0.13887564056616641
360,Rua Laura Soares Carneiro ,570.0,3,5269.0,4,185, Buritis, Belo Horizonte ,-19.9774397,-43.9651219,0.7094737120779003
361,"Rua Goiânia, 264 ",1.0,6,902735.0,3,275, Caiçaras, Belo Horizonte ,-19.9006573,-43.972406,0.8780885376226751
362,"Rua Maestro George Marinuzzi, 298 ",250.0,2,331418.0,2,60, Manacás, Belo Horizonte ,-19.8933063,-43.9979676,0.047262308639689055
363,"Rua Cônsul Walter, 203 ",600.0,3,781998.0,3,123, Buritis, Belo Horizonte ,-19.9745736,-43.9696865,0.3497596663433571
364,"Rua José Silva Passos, 450 ",,1-2,369361.0,2,60, Nova Vista, Belo Horizonte ,-19.8864022,-43.8921415,0.009262113216235712
365,Rua João de Paula ,150.0,2,574199.0,2,147, Sagrada Família, Belo Horizonte ,-19.900775,-43.9182953,0.5300926010146109
366,"Rua Paulo Afonso, 502 ",550.0,3,1421523.0,3,103, Santo Antônio, Belo Horizonte ,-19.9468549,-43.9460463,0.28193090159323375
367,"Rua São Paulo, 2220 ",6082.0,4,8113704.0,4,350, Lourdes, Belo Horizonte ,-19.914782,-43.9388011,0.7589917075822851
368,"Rua Bernardo Guimarães, 310 ",2000.0,4,3450435.0,4,198, Funcionários, Belo Horizonte ,-19.927333,-43.9477878,0.13043509355413052
369,"Rua Câncer, 150 ",,--,241252.0,--,25-155, Santa Lúcia, Belo Horizonte ,-19.9679489,-43.9500084,0.016092125382081046
370,Avenida José Cândido da Silveira ,,2,484946.0,3,85, Cidade Nova, Belo Horizonte ,-19.8772474,-43.9104561,0.5463417939830566
371,Rua Doutor Pereira de Melo ,,3,1108945.0,5,335, Luxemburgo, Belo Horizonte ,-19.943202,-43.9554971,0.6731081830282801
372,Avenida Afonso Pena ,870.0,--,348944.0,3,114, Centro, Belo Horizonte ,-19.9469331,-43.9212512,0.6314531037154103
373,Rua Alvarenga Peixoto ,500.0,2,838491.0,4,130, Santo Agostinho, Belo Horizonte ,-19.929576,-43.9494157,0.17987908598622382
374,Rua Bambuí ,600.0,2,811597.0,4,132, Anchieta, Belo Horizonte ,-19.9521977,-43.9262572,0.5942428494533891
375,Rua Coronel Fulgêncio ,,4,1484139.0,3,284, São Lucas, Belo Horizonte ,-19.9279564,-43.9193789,0.5049573472884265
376,"Rua Mariano Procópio, 376 ",,1-3,,2-3,55-146, João Pinheiro, Belo Horizonte ,-19.9305746,-43.9939538,0.9821085908641668
377,Rua Itajubá ,250.0,3,676357.0,2,111, Sagrada Família, Belo Horizonte ,-19.9111658,-43.9295436,0.46368589740855803
378,"Rua Valparaíso, 360 ",522.0,2,828948.0,4,154, Sion, Belo Horizonte ,-19.9490878,-43.9358155,0.9273078810326111
379,Rua dos Expedicionários ,,4,853441.0,3,142, Santa Amélia, Belo Horizonte ,-20.2252407,-44.3977797,0.3944123661028147
380,Rua dos Xavantes ,,6,692774.0,3,210, Santa Mônica, Belo Horizonte ,-19.8292699,-43.9785643,0.5462292205613337
381,"Rua Ouro Preto, 1161 ",528.0,2,937098.0,4,175, Santo Agostinho, Belo Horizonte ,-19.9190479,-43.949625,0.024683664005453188
382,"Rua Kennedy Maro Campos, 187 ",,3,848658.0,3,93, Castelo, Belo Horizonte ,-19.8876077,-43.9975959,0.9529249163380471
383,Rua Tomé de Souza ,1800.0,1,861849.0,3,100, Savassi, Belo Horizonte ,-19.9388244,-43.9274451,0.49131380058717566
384,"Rua Campanha, 50 ",400.0,2,1016999.0,3,119, Carmo, Belo Horizonte ,-19.94255,-43.9326357,0.9646972981530165
385,"Rua Bráz Cubas, 77 ",431.0,2,841157.0,3,148, Cruzeiro, Belo Horizonte ,-19.9448694,-43.9283828,0.06785333840350416
386,"Rua Heitor Sócrates Cardoso, 132 ",100.0,1,462549.0,2,89, Santa Amélia, Belo Horizonte ,-19.8356951,-43.9758151,0.013079792857696448
387,Rua Nunes Vieira ,500.0,1,607116.0,2,58, Santo Antônio, Belo Horizonte ,-19.9424153,-43.945949,0.45501321443444154
388,"Rua Úrsula Paulino, 1321 ",,2-3,,2-3,55-75, Betânia, Belo Horizonte ,-19.9669908,-43.9920275,0.23911687709718
389,Rua Nelson Soares de Faria ,390.0,2,505889.0,3,87, Cidade Nova, Belo Horizonte ,-19.8922512,-43.9271688,0.2419845050599685
390,"Avenida Engenheiro Carlos Goulart, 130 ",814.0,2,616211.0,3,98, Buritis, Belo Horizonte ,-19.9703438,-43.960916,0.626615329910648
391,Rua Alvarenga Peixoto ,1680.0,4,2670978.0,4,223, Santo Agostinho, Belo Horizonte ,-19.929576,-43.9494157,0.3658617507672982
392,Avenida Paulo Camilo Pena ,3800.0,4,6816312.0,4,360, Belvedere, Belo Horizonte ,-19.9676329,-43.9429816,0.45598720384967795
393,Rua Aparecida Feitosa Furtado ,,4,1052295.0,5,360, Diamante, Belo Horizonte ,-19.9940007,-44.0177754,0.8235442386832752
394,Rua Curitiba ,1638.0,2,1298690.0,2,99, Lourdes, Belo Horizonte ,-19.9122312,-43.9396634,0.29295892457724426
395,"Rua Úrsula Paulino, 1321 ",,1-2,420064.0,2-3,55-75, Estrela do Oriente, Belo Horizonte ,-19.9669908,-43.9920275,0.8303131649167881
396,Rua Santo Antônio do Monte ,350.0,1,292583.0,3,110, Santo Antônio, Belo Horizonte ,-19.9472748,-43.9410432,0.5645327015656603
397,Rua Alírio Elias Ferreira ,380.0,2,435749.0,3,89, Cidade Nova, Belo Horizonte ,-19.8841068,-43.9235072,0.9383186764576152
398,"Rua Montes Claros, 1217 ",550.0,2,1414294.0,3,98, Cruzeiro, Belo Horizonte ,-19.9434371,-43.9342094,0.8918145826957503
399,"Rua Pouso Alto, 536 ",,5,1532322.0,5,253, Serra, Belo Horizonte ,-19.9332707,-43.9209022,0.3505345111461192
400,"Rua Desembargador José Satyro, 315 ",,2-3,,3,87-160, Castelo, Belo Horizonte ,-19.8888536,-43.995997,0.4217183371319492
401,Avenida Expedicionário Benvindo Belém de Lima ,,--,1377243.0,--,1000, São Luíz, Belo Horizonte ,-19.8673564,-43.9785377,0.47702083954203567
402,Rua Hidra ,,4,2256764.0,5,352, Santa Lúcia, Belo Horizonte ,-19.9616427,-43.9472879,0.9405499615714298
403,"Rua Demétrio Ribeiro, 75 ",377.0,1,268412.0,2,56, Saudade, Belo Horizonte ,-19.9163944,-43.8936505,0.6853242079388822
404,"Avenida Amazonas, 713 ",625.0,1,367313.0,3,93, Centro, Belo Horizonte ,-19.9379439,-43.9991336,0.13068511747191414
405,"Rua Ipê Amarelo, 43 ",,4,2593719.0,4,186-310, Vale do Sereno, Nova Lima ,-19.8483931,-43.8791189,0.24350516873326267
406,Rua Augustus William Parish ,,1,347734.0,2,53, Santa Amélia, Belo Horizonte ,-19.8352568,-43.9721231,0.9908231385608264
407,"Rua Doutor Lucídio Avelar, 52 ",200.0,1,264495.0,3,65, Buritis, Belo Horizonte ,-19.9714927,-43.9659325,0.4998008651472332
408,Rua dos Aimorés ,560.0,2,1376208.0,3,84, Lourdes, Belo Horizonte ,-19.9245137,-43.9538877,0.18868007572137602
409,"Avenida Senador José Augusto, 260 ",1100.0,3,1519459.0,4,126, Buritis, Belo Horizonte ,-19.9812868,-43.978411,0.8707702958443823
410,Rua Joanésia ,300.0,3,790232.0,3,134, Serra, Belo Horizonte ,-19.938141,-43.9185333,0.30518390623149494
411,Rua Augusto Clementino ,,2,640952.0,4,180, Santa Amélia, Belo Horizonte ,-19.8341265,-43.981495,0.1469911557351249
412,"Rua Boaventura, 2058 ",,2,441979.0,2-3,54-67, Liberdade, Belo Horizonte ,-19.8700087,-43.94948275136835,0.5699139669607722
413,"Rua Francisco Deslandes, 636 ",1450.0,2,1888482.0,4,363, Anchieta, Belo Horizonte ,-19.9515934,-43.9276908,0.8030146945661385
414,Rua Paraguai ,385.0,2,906134.0,2,136, Sion, Belo Horizonte ,-19.947766,-43.9338933,0.6170962034819116
415,"Rua Niteroi, 140 ",,2,606049.0,3,100, Santa Efigênia, Belo Horizonte ,-19.9238926,-43.9163689,0.03914314669683372
416,Rua Amílcar Vianna Martins ,,4,3101685.0,4,350, Buritis, Belo Horizonte ,-19.9846791,-43.9691247,0.07744616203582588
417,Avenida Amazonas ,,--,275937.0,3,120, Centro, Belo Horizonte ,-19.9379439,-43.9991336,0.9972720400003676
418,"Rua Pedra Lavrada, 0 ",,1,217614.0,2,40-41, São Gabriel, Belo Horizonte ,-19.8490873,-43.9124684,0.07506538945334629
419,Avenida Artur Bernardes ,460.0,1,627822.0,3,95, Vila Paris, Belo Horizonte ,-19.9545898,-43.9465102,0.41494203839091304
420,Avenida Portugal ,,8,995096.0,3,256, Santa Amélia, Belo Horizonte ,-19.8425871,-43.9698185,0.8463773820202986
421,Rua Tefé ,250.0,2,501951.0,3,67, Renascença, Belo Horizonte ,-19.8926275,-43.9403345,0.7005004005017679
422,"Rua Mercês, 29 ",800.0,2,514683.0,2,73, Prado, Belo Horizonte ,-19.9189854,-44.2732979,0.43741047139431144
423,Rua Engenheiro Amaro Lanari ,500.0,2,1015830.0,4,197, Anchieta, Belo Horizonte ,-19.9510325,-43.9294902,0.41381710638632796
424,"Rua Thomaz Naves, 100 ",,1-2,,3,71-139, Santa Amélia, Belo Horizonte ,-19.841271,-43.9853373,0.9983324543914242
425,Rua Cláudio Gomes de Souza ,,1,279168.0,2,58, Palmares, Belo Horizonte ,-19.8712648,-43.9389073,0.394622264583671
426,"Avenida Dora Tomich Laender, 165 ",,10,5144754.0,5,565, Braúnas, Belo Horizonte ,-19.8446644,-44.0026123,0.6926220999310125
427,"Rua Caetano de Azeredo, 800 ",,1,956111.0,2,230, Barreiro, Belo Horizonte ,-19.9790634,-44.0166794,0.951386227853353
428,Rua Castelo de São Jorge ,380.0,2,490103.0,3,92, Castelo, Belo Horizonte ,-19.8834954,-44.0009026,0.9537351040747956
429,"Rua dos Borges, 990 ",,--,191348.0,2,47-50, Jardim Vitória, Belo Horizonte ,-19.8413359,-43.8776027,0.18996158839667698
430,Rua Professor Galba Veloso ,250.0,2,537069.0,3,85, Santa Tereza, Belo Horizonte ,-19.9128102,-43.9195994,0.18894641801225875
431,Rua Ágata ,340.0,2,679822.0,3,190, União, Belo Horizonte ,-19.884949,-43.9210884,0.5224030741529866
432,Avenida José Cândido da Silveira ,630.0,2,670089.0,3,94, Sagrada Família, Belo Horizonte ,-19.8772474,-43.9104561,0.16814657534777722
433,"Rua Palmira, 154 ",,2,911947.0,2,65, Serra, Belo Horizonte ,-19.9400054,-43.9167042,0.7670525500343957
434,"Rua Osório Duque Estrada, 0 ",,1,268041.0,2,37-45, Planalto, Belo Horizonte ,-19.8289019,-43.9448977,0.008278395022019325
435,Rua Helena Antipoff ,,4,2319192.0,4,395, São Bento, Belo Horizonte ,-19.9548137,-43.9522343,0.6542331130543979
436,"Rua Levindo Lopes, 236 ",1680.0,4,3585558.0,3,220, Savassi, Belo Horizonte ,-19.9372043,-43.9394458,0.20486741821524013
437,"Rua Aluísio Lobão Veras, 75 ",499.0,2,358988.0,3,69, Serrano, Belo Horizonte ,-19.8816511,-44.0073674,0.2535457035818548
438,"Avenida Afonso Vaz de Melo, 17 ",,--,,1,25, Barreiro, Belo Horizonte ,-19.9766048,-44.0246651,0.7822029122843265
439,Rua Doutor Cinyras Ladeira ,,2,455085.0,3,81, Heliópolis, Belo Horizonte ,-19.842733,-43.937273,0.9759281052393511
440,"Rua Odilon Braga, 485 ",1350.0,2,1319876.0,3,134, Anchieta, Belo Horizonte ,-19.9524463,-43.9223112,0.18539334874110325
441,"Rua Engenheiro Walter Kurrle, 15 ",3200.0,4,2582928.0,4,215, Belvedere, Belo Horizonte ,-19.9777773,-43.9433639,0.23012249071514101
442,Rua Curitiba ,2351.0,3,2366938.0,4,172, Centro, Belo Horizonte ,-19.9122312,-43.9396634,0.5460378398444541
443,"Rua Aporé, 324 ",,10,752781.0,5,120, Aparecida, Belo Horizonte ,-19.8893743,-43.9544844,0.5812459436089418
444,"Rua Engenheiro Alberto Pontes, 434 ",780.0,2,729026.0,3,115, Buritis, Belo Horizonte ,-19.9689271,-43.9668895,0.6644191245759609
445,"Rua Canto das Aves, 5 ",,4,8922771.0,4,810, Vale dos Cristais, Nova Lima ,-20.0120386,-43.9260328,0.66375280834758
446,Avenida Pedro Serafim Ferreira ,,6,2817889.0,4,600, Palmares, Belo Horizonte ,-19.8724439,-43.9292508,0.3168223121104007
447,Rua Afonso Ferreira Gomes ,,2,1707453.0,3,229, Castelo, Belo Horizonte ,-19.8719965,-43.9980992,0.45941688799371405
448,Rua Pioneiros da Paz ,,2,412008.0,3,120, Santa Amélia, Belo Horizonte ,-19.8388031,-43.9796899,0.4446935141936661
449,"Rua Curitiba, 224 ",,--,4547162.0,45,0, Centro, Belo Horizonte ,-19.9122312,-43.9396634,0.3679042754318781
450,Rua Professor Moraes ,1100.0,3,1309327.0,4,120, Savassi, Belo Horizonte ,-19.8624858,-43.9614177,0.0959902337265982
451,"Rua Benjamim Dias, 407 ",,2,,3,104, Barreiro, Belo Horizonte ,-20.3810929,-43.5107869,0.9428251210203139
452,Rua Santos ,250.0,1,291318.0,2,46, Jardim América, Belo Horizonte ,-19.9957125,-43.9799614,0.6527380375651146
453,"Rua Thomaz Naves, 100 ",280.0,1,498243.0,3,71, Santa Amélia, Belo Horizonte ,-19.841271,-43.9853373,0.874229147844217
454,"Rua Guido Ciolette, 52 ",,--,,2,47-62, Santa Helena, Belo Horizonte ,-19.9804924,-44.0163387,0.35585380376584763
455,Rua Nízio Torres ,,2,320961.0,2,57, Ouro Preto, Belo Horizonte ,-19.8859014,-43.9857664,0.07144443952215596
456,Avenida Dom José Gaspar ,650.0,3,1666218.0,3,201, Coração Eucarístico, Belo Horizonte ,-19.9260318,-43.9927246,0.10812314186583094
457,Rua Maria Heilbuth Surette ,400.0,4,1492138.0,4,231, Buritis, Belo Horizonte ,-19.9671931,-43.9714445,0.052874506851743774
458,Rua Montevidéu ,2900.0,4,5089.0,4,207, Sion, Belo Horizonte ,-19.9510708,-43.9349719,0.8343592183978655
459,"Avenida Waldyr Soeiro Emrich, 3429 ",,1-2,,2,48-98, Novo das Indústrias, Belo Horizonte ,-19.9832414,-44.0069415,0.12015348989234587
460,Rua Vicente Guimarães ,2450.0,4,2412976.0,4,230, Belvedere, Belo Horizonte ,-19.972718,-43.9421328,0.7993947247023626
461,Rua Rio Grande do Sul ,,3,2195870.0,3,143, Santo Agostinho, Belo Horizonte ,-19.9227162,-43.946463,0.8695678697686214
462,"Avenida Coronel José Dias Bicalho, 516 ",300.0,1,671684.0,3,110, São Luíz, Belo Horizonte ,-19.8590713,-43.9656056,0.19472996907139284
463,Rua Laranjal ,650.0,2,767146.0,3,64, Anchieta, Belo Horizonte ,-19.9471532,-43.9304352,0.8022409287538794
464,"Rua Rio de Janeiro, 1270 ",400.0,1,615809.0,1,46, Lourdes, Belo Horizonte ,-19.9150685,-43.9375314,0.1965302359704062
465,"Rua Maria do Carmo, 40 ",,--,,2,48-75, Santa Cruz, Belo Horizonte ,-19.9918978,-44.0124253,0.5914709534942819
466,Rua Mansueto Filizzola ,,1,465530.0,3,155, Santa Amélia, Belo Horizonte ,-19.8401198,-43.9769328,0.936662219796095
467,Rua Orlando Moretzsohn ,250.0,1,311882.0,2,70, Buritis, Belo Horizonte ,-19.9728976,-43.9748499,0.1386250023046931
468,Rua Tomé de Souza ,690.0,1,1167994.0,1,44, Savassi, Belo Horizonte ,-19.9388244,-43.9274451,0.9183016682015227
469,Rua Espírito Santo ,1850.0,3,2159291.0,4,162, Lourdes, Belo Horizonte ,-18.8647762,-41.1217768,0.2463072484176927
470,"Rua Rio de Janeiro, 1599 ",669.0,1,630149.0,2,70, Lourdes, Belo Horizonte ,-19.9150685,-43.9375314,0.05523893300995042
471,Rua Gonçalves Dias ,500.0,2,927543.0,2,62, Lourdes, Belo Horizonte ,-19.9311846,-43.9376407,0.47239160562585325
472,"Rua Alva, 200 ",,1,210696.0,2,41-44, Xodó Marize, Belo Horizonte ,-19.8185453,-43.9389788,0.8375019494671999
473,"Rua Espírito Santo, 2183 ",2600.0,5,4325423.0,4,431, Lourdes, Belo Horizonte ,-18.8647762,-41.1217768,0.8504735128867064
474,"Rua Tomaz Gonzaga, 444 ",3600.0,4,6110010.0,4,410, Lourdes, Belo Horizonte ,-19.9329322,-43.9411068,0.1091082540559486
475,"Rua Albertino Teixeira Dias, 331 ",,--,,2,46-47, Santa Helena, Belo Horizonte ,-19.9927642,-44.0152809,0.40686580504808056
476,Rua Oliveira ,600.0,2,646148.0,4,140, Cruzeiro, Belo Horizonte ,-19.9209465,-43.984636,0.7481383033149088
477,"Avenida Francisco Sales, 1830 ",300.0,1,427033.0,2,80, Floresta, Belo Horizonte ,-19.9221979,-43.927814,0.862020426076564
478,"Rua Domingos Vieira, 319 ",,--,189015.0,--,25, Santa Efigênia, Belo Horizonte ,-19.9229036,-43.9230934,0.45546919313264767
479,"Avenida do Contorno, 5005 ",730.0,1,533232.0,2,60, Funcionários, Belo Horizonte ,-19.9156428,-43.9453796,0.10899156490122153
480,"Rua Senhora do Porto, 1500 ",280.0,1,250663.0,2,46, Palmeiras, Belo Horizonte ,-19.9683909,-43.9842281,0.44577662665024476
481,"Rua Ubá, 351 ",1000.0,1,713827.0,3,110, Colégio Batista, Belo Horizonte ,-19.9102519,-43.9356369,0.330580713663744
482,"Rua Um, 50 ",,1,205080.0,2,41-44, Amazonas, Contagem ,-19.785545,-43.975491,0.5871099179816911
483,"Rua da Bahia, 996 ",280.0,--,326729.0,2,75, Centro, Belo Horizonte ,-19.9151776,-43.9347647,0.2665291347029941
484,Rua Porto Carrero ,850.0,2,768179.0,4,140, Gutierrez, Belo Horizonte ,-19.9435341,-43.9589666,0.8181352473644317
485,"Rua Maranhão, 1418 ",2860.0,4,4451081.0,4,278, Funcionários, Belo Horizonte ,-19.9265829,-43.9240941,0.44236813192819013
486,Rua Carangola ,2025.0,2,6163.0,4,148, Santo Antônio, Belo Horizonte ,-19.9444674,-43.9428747,0.851976572406897
487,"Rua Venezuela, 574 ",880.0,3,1142119.0,3,195, Sion, Belo Horizonte ,-19.953459,-43.9369995,0.4326266295949751
488,"Rua Rio de Janeiro, 1186 ",550.0,1,740847.0,2,150, Centro, Belo Horizonte ,-19.9150685,-43.9375314,0.5757340699764965
489,"Rua Quatro, 16251 ",,--,190227.0,2,46-50, Maria Tereza, Belo Horizonte ,-19.8641199,-43.9073247,0.29078568062880694
490,"Rua São Gonçalo do Abaeté, 19 ",,1,438477.0,2,53, Santa Branca, Belo Horizonte ,-19.8394322,-43.9702004,0.24301038794132712
491,Rua Barão de Lucena ,,3,1901847.0,4,224, Serra, Belo Horizonte ,-19.9336802,-43.9221987,0.04312743779544115
492,"Avenida Raja Gabaglia, 1010 ",,--,196522.0,2,99, Estoril, Belo Horizonte ,-19.9364152,-43.9533964,0.22983568105650531
493,"Rua Monte Santo, 160 ",353.0,1,280780.0,3,75, Carlos Prates, Belo Horizonte ,-19.9095009,-43.9647001,0.2311983184518338
494,Rua Rio de Janeiro ,,4,6512124.0,4,426, Lourdes, Belo Horizonte ,-19.9150685,-43.9375314,0.8402249788730067
495,"Rua Padre Francisco Juarez, 355 ",,1,185407.0,2,38-41, Perobas, Contagem ,-19.9155797,-44.065226,0.0040096783332067565
496,"Rua Jovina Gomes de Souza, 948 ",,--,121617.0,2,68, Letícia, Belo Horizonte ,-19.8088564,-43.9777737,0.975254368228982
497,Rua Passa Tempo ,1508.0,4,2079303.0,4,144, Carmo, Belo Horizonte ,-19.9458256,-43.9307955,0.0016019799261828283
498,Rua Santa Rita Durão ,685.0,2,1485640.0,3,95, Funcionários, Belo Horizonte ,-19.9344756,-43.9346452,0.0047419211619488255
499,Rua Boaventura Costa ,250.0,3,530476.0,3,85, Barreiro, Belo Horizonte ,-19.9740024,-44.022471,0.5320780681245437
500,"Rua Rita Camargos, 351 ",,1,183963.0,2,44, Bom Jesus, Contagem ,-19.8391333,-44.0329823,0.36273771786844067
501,Rua Níquel ,1.0,4,2614312.0,4,406, Serra, Belo Horizonte ,-19.9410888,-43.9171343,0.8940490813718083
502,"Avenida Senador Levindo Coelho, 1267 ",,1-2,,2,44-84, Vale do Jatoba Barreiro, Belo Horizonte ,-20.0116178,-44.0331311,0.1034490116248995
503,Rua Castelo Serpa ,480.0,2,632177.0,3,97, Castelo, Belo Horizonte ,-19.8818848,-44.0028115,0.28888324271452914
504,"Rua Amílcar Vianna Martins, 150 ",600.0,8,3919794.0,4,440, Buritis, Belo Horizonte ,-19.9846791,-43.9691247,0.19941091126823596
505,Rua Fausto Nunes Vieira ,3067.0,4,3692555.0,2,247, Belvedere, Belo Horizonte ,-19.9732179,-43.9362799,0.5754060968006998
506,Rua Pouso Alegre ,300.0,1,354812.0,2,54, Santa Tereza, Belo Horizonte ,-19.9121319,-43.9296778,0.4455382104185206
507,Rua Matipó ,800.0,2,693221.0,4,153, Santo Antônio, Belo Horizonte ,-19.9473515,-43.9434703,0.9520806811032032
508,"Avenida Marte, 40 ",,2,,2-3,52-73, Jardim Riacho das Pedras, Contagem ,-19.9708397,-44.0614625,0.29943271832993923
509,"Rua Cristina, 1261 ",,2,470454.0,1,17, Santo Antônio, Belo Horizonte ,-19.9472539,-43.9352691,0.9404602112836847
510,"Rua Professor Euclydes Ferreira, 359 ",255.0,3,774964.0,3,173, Buritis, Belo Horizonte ,-19.9701337,-43.972571,0.9225169757170527
511,Rua Ouro Preto ,1680.0,3,2749057.0,4,210, Santo Agostinho, Belo Horizonte ,-19.9190479,-43.949625,0.698115815566634
512,Rua Tamboril ,,--,618067.0,--,440, Renascença, Belo Horizonte ,-19.8319147,-43.9217895,0.03691852963092945
513,Rua General Dionísio Cerqueira ,,3,1545646.0,3,243, Gutierrez, Belo Horizonte ,-19.9347654,-43.9608311,0.1197523473901142
514,"Avenida Denise Cristina da Rocha, 612 ",,1,178788.0,2,38, Centro, Ribeirão das Neves ,-19.802935,-43.9986345,0.5727607373989451
515,Rua Santa Catarina ,2641.0,5,4934832.0,4,574, Lourdes, Belo Horizonte ,-19.9232479,-43.9438549,0.4232220223762446
516,"Rua Úrsula Paulino, 1321 ",390.0,1,422846.0,2,55, Betânia, Belo Horizonte ,-19.9669908,-43.9920275,0.45924825540830294
517,Rua Gustavo Ladeira ,670.0,2,618223.0,3,132, Paquetá, Belo Horizonte ,-19.8798769,-43.9917158,0.24042013225951087
518,Rua São Paulo ,2600.0,4,4401580.0,4,305, Lourdes, Belo Horizonte ,-19.914782,-43.9388011,0.5831065691119725
519,Rua Humberto Rosa Teixeira ,10.0,2,1050008.0,4,327, Santa Amélia, Belo Horizonte ,-19.8359763,-43.97299,0.052716355589203734
520,"Rua Princesa Isabel, 190 ",,1,174100.0,2,41-47, Chacaras Del Rey Sao Benedito, Santa Luzia ,-19.883784,-43.9351449,0.8685925732892809
521,"Rua Professor Estevão Pinto, 1494 ",2100.0,2,2104003.0,4,300, Serra, Belo Horizonte ,-19.9354541,-43.9252254,0.3729914201821646
522,Rua Viçosa ,,2,763231.0,4,120, São Pedro, Belo Horizonte ,-19.9426291,-43.93817,0.22399233091856396
523,"Avenida Professor Mário Werneck, 2990 ",575.0,2,543830.0,4,110, Buritis, Belo Horizonte ,-19.9758245,-43.9684461,0.3297893780944189
524,Rua Ramalho Ortigão ,150.0,2,320469.0,2,43, Santa Branca, Belo Horizonte ,-19.8327541,-43.9664751,0.6534132916583258
525,Rua Desembargador Jorge Fontana ,1500.0,2,828214.0,3,101, Belvedere, Belo Horizonte ,-19.9742039,-43.9395163,0.34539223891005144
526,"Rua Santa Fé, 61 ",1100.0,3,1272040.0,4,138, Sion, Belo Horizonte ,-19.9063807,-43.9684112,0.06121475228265716
527,Rua José Fernandes dos Reis ,,1,253818.0,2,48, Santa Mônica, Belo Horizonte ,-19.825318,-43.974998,0.2808000755096539
528,Rua Desembargador Paulo Mota ,343.0,1,416777.0,3,101, Ouro Preto, Belo Horizonte ,-19.884957,-43.9827668,0.5771300841923286
529,Avenida Otacílio Negrão de Lima ,,8,4309639.0,3,454, Pampulha, Belo Horizonte ,-19.8609803,-43.9768403,0.3411542659101652
530,Rua Pedra do Rio ,,2,355116.0,3,93, Rio Branco, Belo Horizonte ,-19.8118336,-43.9873492,0.09737185299198037
531,"Rua Dona Geni, 0 ",,2,173871.0,2,50, Maria Helena, Belo Horizonte ,-19.8030255,-43.9968062,0.21750439710066416
532,Rua Curitiba ,2000.0,3,2622093.0,4,164, Lourdes, Belo Horizonte ,-19.9122312,-43.9396634,0.42524058598132575
533,"Rua Quatro, 98 ",,1,172742.0,2,39, Granja Verde, Betim ,-19.8641199,-43.9073247,0.024468026389333764
534,Rua Cônego Rocha Franco ,700.0,2,930023.0,3,90, Gutierrez, Belo Horizonte ,-19.9354579,-43.954094,0.9233744194581114
535,"Rua André Cavalcanti, 0 ",1900.0,4,3906322.0,4,288, Gutierrez, Belo Horizonte ,-19.9319115,-43.9611283,0.8733192020005759
536,Avenida Olegário Maciel ,2800.0,3,3654864.0,4,460, Lourdes, Belo Horizonte ,-19.9159707,-43.9433531,0.2457339330952758
537,Rua Vicente Risola ,380.0,2,1015944.0,3,168, Santa Inês, Belo Horizonte ,-19.8910177,-43.9084895,0.67751746467292
538,"Rua dos Aimorés, 131 ",850.0,1,1177531.0,4,200, Funcionários, Belo Horizonte ,-19.9245137,-43.9538877,0.21458320689662613
539,"Estrada de Areias, 221 ",,--,,--,250-1020, Esperanca Justinopolis, Ribeirão das Neves ,-19.765255,-44.0047072,0.039666769067901564
540,"Rua Alessandra Salum Cadar, 801 ",420.0,2,468453.0,3,97, Buritis, Belo Horizonte ,-19.9760471,-43.9703167,0.4256738216188327
541,Rua Ouro Preto ,1450.0,2,1411882.0,3,103, Santo Agostinho, Belo Horizonte ,-19.9190479,-43.949625,0.7656801133220116
542,"Rua Hélia Ricaldoni de Freitas, 1 ",,4,1102783.0,4,360, Serrano, Belo Horizonte ,-19.8782924,-44.0104344,0.6082426186409842
543,Rua Paulista ,,2,751622.0,3,114, Fernão Dias, Belo Horizonte ,-19.8670029,-43.9174447,0.053264492371834504
544,"Avenida Diamante, 850 ",,1,188391.0,2,41-48, Sapucaia II, Contagem ,-19.8888513,-44.1113698,0.5939903964597614
545,Rua Fernando França Campos ,,6,3441155.0,5,724, São Bento, Belo Horizonte ,-19.6395182,-43.9076344,0.6649332712510185
546,Rua Stela de Souza ,430.0,3,1021162.0,3,220, Sagrada Família, Belo Horizonte ,-19.9038754,-43.9301764,0.4737298997586997
547,"Rua Gentil Portugal do Brasil, 55 ",380.0,--,277177.0,3,65, Camargos, Belo Horizonte ,-19.935738,-44.0215529,0.08706430238182117
548,"Rua Engenheiro Alberto Pontes, 460 ",1365.0,4,6878.0,4,280, Buritis, Belo Horizonte ,-19.9689271,-43.9668895,0.4638786194000618
549,"Avenida Presidente Tancredo Neves, 3000 ",900.0,2,1060274.0,4,121, Castelo, Belo Horizonte ,-19.9043738,-43.9876431,0.9131892058029918
550,Rua João Carlos ,300.0,2,575259.0,3,115, Sagrada Família, Belo Horizonte ,-19.9034255,-43.9202773,0.27959518556992113
551,"Rua Lauro Sodré Nogueira, 302 ",,1,179368.0,2,43, São Pedro, Ribeirão das Neves ,-19.7685583,-44.0923158,0.9658330394134179
552,"Avenida João Rolla Filho, 174 ",205.0,1,212311.0,2,52, Diamante, Belo Horizonte ,-19.9936702,-44.0233547,0.47628708390520547
553,Rua Guilherme de Almeida ,760.0,1,531143.0,3,110, Santo Antônio, Belo Horizonte ,-19.9482786,-43.9476553,0.8031741860140651
554,"Rua Bambuí, 729 ",1100.0,2,975770.0,3,137, Cruzeiro, Belo Horizonte ,-19.9521977,-43.9262572,0.4796511972998806
555,"Rua Raimunda Simões da Silva, 83 ",330.0,2,393454.0,3,76, Castelo, Belo Horizonte ,-19.8969034,-43.9967754,0.24154565853223642
556,Rua Maria Fortunata Rothéia ,490.0,6,3959873.0,5,440, Serra, Belo Horizonte ,-19.8871877,-43.9908263,0.030287401086137145
557,"Rua Senhora do Porto, 1330 ",300.0,1,297653.0,2,48, Palmeiras, Belo Horizonte ,-19.9683909,-43.9842281,0.0651849074389017
558,"Rua João Neiva, 618 ",,2,390653.0,4,290, Boa Vista, Belo Horizonte ,-19.8942677,-43.891655,0.16152557161684789
559,"Alameda de Rondon, 166 ",,1,167842.0,2,41-47, Lundcea, Lagoa Santa ,-19.6333681,-43.9145949,0.6161604693710628
560,Rua Desembargador Jorge Fontana ,2000.0,3,1498013.0,4,135, Belvedere, Belo Horizonte ,-19.9742039,-43.9395163,0.09639330245927624
561,Avenida Antônio Francisco Lisboa ,,10,7077628.0,5,639, Bandeirantes, Belo Horizonte ,-19.8562076,-44.0027334,0.9959796568243506
562,"Rua São Paulo, 2189 ",2000.0,2,3014932.0,4,215, Lourdes, Belo Horizonte ,-19.914782,-43.9388011,0.16641300858023333
563,"Rua Pinto Alves, 1311 ",,1,176695.0,2-3,47-67, Centro, Lagoa Santa ,-19.6251064,-43.8929678,0.858692818760716
564,Rua Dom João Antônio dos Santos ,400.0,2,770155.0,5,240, Coração Eucarístico, Belo Horizonte ,-19.9206452,-43.9879917,0.8485315200297573
565,Rua dos Expedicionários ,,1,399588.0,2,100, Santa Amélia, Belo Horizonte ,-20.2252407,-44.3977797,0.7526123441601426
566,Rua Itambé do Mato Dentro ,150.0,1,511427.0,3,110, Castelo, Belo Horizonte ,-19.8771705,-44.0085993,0.8936490772721905
567,Rua Stella Hanriot ,1300.0,3,1557681.0,4,141, Buritis, Belo Horizonte ,-19.9715766,-43.9715633,0.538380972183514
568,"Rua Califórnia, 858 ",1250.0,1,711646.0,3,90, Sion, Belo Horizonte ,-19.9530435,-43.9341217,0.11947557102173612
569,Rodovia BR,,--,,--,20000,040, Km 480 ,-23.0724646,-46.9852627,0.7287068472318271
570,"Avenida Alfredo Camarate, 539 ",,2,678664.0,--,65, São Luíz, Belo Horizonte ,-19.8700668,-43.9761766,0.6010872743100617
571,Rua Castelo Branco ,,1,326162.0,2,68, Santa Terezinha, Belo Horizonte ,-19.86982,-44.0035326,0.24694930673945814
572,Rua Alves do Vale ,750.0,2,922157.0,2,68, Luxemburgo, Belo Horizonte ,-19.9470605,-43.952024,0.6728744938769884
573,Rua Maranhão ,250.0,1,2194.0,3,90, Funcionários, Belo Horizonte ,-19.9265829,-43.9240941,0.25002405557706264
574,Rua Carlos Turner ,382.0,1,417713.0,3,80, Silveira, Belo Horizonte ,-19.8901846,-43.9306667,0.6031395526419614
575,"Rua Albert Sabin, 761 ",,1,,2,45, Quintino, Divinópolis ,-19.8908865,-43.9930003,0.07261339756515939
576,Rua Ministro Hermenegildo de Barros ,,4,955764.0,3,220, Itapoã, Belo Horizonte ,-19.8396132,-43.9613263,0.947053983267318
577,Avenida Francisco Sales ,527.0,--,306499.0,2,72, Floresta, Belo Horizonte ,-19.9221979,-43.927814,0.7884053163829414
578,Rua Henrique Sales ,,1,760026.0,3,100, Luxemburgo, Belo Horizonte ,-19.9436744,-43.9549034,0.6034549972583448
579,"Rua Bernardo Guimarães, 3115 ",,2,1007958.0,3,86, Barro Preto, Belo Horizonte ,-19.927333,-43.9477878,0.36368056055894826
580,"Rua Cláudio Manoel, 632 ",1037.0,2,948104.0,2,68, Funcionários, Belo Horizonte ,-19.9335821,-43.9329926,0.8513058531015392
581,"Rua Albânia, 0 ",,--,145341.0,--,270, Europa, Belo Horizonte ,-19.8017402,-43.9656919,0.1800754475377595
582,"Rua Desembargador Jorge Fontana, 610 ",3480.0,5,7136549.0,4,465, Belvedere, Belo Horizonte ,-19.9742039,-43.9395163,0.8942487336822474
583,"Rua Professora Bartira Mourão, 177 ",,2,564184.0,2,54, Buritis, Belo Horizonte ,-19.9691439,-43.9679544,0.753829432184375
584,Rua Ramalho Ortigão ,150.0,2,497875.0,2,60, Santa Branca, Belo Horizonte ,-19.8327541,-43.9664751,0.6054876235108729
585,Rua Santa Fé ,1200.0,3,1298344.0,3,140, Sion, Belo Horizonte ,-19.9063807,-43.9684112,0.2899468985140117
586,Rua Teixeira de Freitas ,600.0,1,577238.0,3,120, Santo Antônio, Belo Horizonte ,-19.9473451,-43.9478337,0.6613704522157141
587,Rua Peperi ,350.0,2,684609.0,3,82, Nova Granada, Belo Horizonte ,-19.94046,-43.9683561,0.8036032540440899
588,Rua João Luiz Pereira ,,3,663583.0,3,137, São João Batista, Belo Horizonte ,-19.8262781,-43.9654164,0.05972269233797878
589,"Rua Assunção, 515 ",550.0,1,731091.0,3,100, Sion, Belo Horizonte ,-19.9539031,-43.9378663,0.24755819820773173
590,"Rua Ouro Preto, 1274 ",800.0,3,2274413.0,4,133, Santo Agostinho, Belo Horizonte ,-19.9190479,-43.949625,0.48693388300142426
591,Rua Itacoatiara ,130.0,1,252325.0,2,86, Sagrada Família, Belo Horizonte ,-19.899004,-43.9220627,0.2144475293262692
592,Rua Guaranésia ,320.0,1,404261.0,2,72, Colégio Batista, Belo Horizonte ,-19.9066945,-43.9344052,0.5503204470536478
593,"Rua Vander Rodrigues de Lima, 65 ",637.0,2,385054.0,3,94, Caiçaras, Belo Horizonte ,-19.9024129,-43.9800046,0.32512842486245663
594,Avenida Raja Gabaglia ,,1,256486.0,--,98, Cidade Jardim, Belo Horizonte ,-19.9364152,-43.9533964,0.013176954464579449
595,"Rua São João do Paraíso, 297 ",450.0,2,712195.0,3,96, Sion, Belo Horizonte ,-19.9547445,-43.9334083,0.969665014437655
596,Rua do Ouro ,750.0,1,524294.0,3,90, Serra, Belo Horizonte ,-19.947074,-43.9186245,0.6509772056364307
597,"Rua Engenheiro Alberto Pontes, 434 ",700.0,2,678548.0,4,96, Buritis, Belo Horizonte ,-19.9689271,-43.9668895,0.7213271545893016
598,"Rua Marco Aurélio de Miranda, 115 ",461.0,2,759395.0,3,190, Buritis, Belo Horizonte ,-19.9739157,-43.9678046,0.005718060172981265
599,"Rua Pastor Mamélio Ferreira, 147 ",308.0,1,289933.0,3,62, Camargos, Belo Horizonte ,-19.9356553,-44.0205661,0.15125875836103198
600,Rua Henrique Furtado Portugal ,980.0,3,889188.0,4,120, Buritis, Belo Horizonte ,-19.9722454,-43.9667316,0.3998426573206947
601,Rua Abílio Machado ,,2,889920.0,3,286, Sagrada Família, Belo Horizonte ,-19.9027141,-43.9215636,0.19395685539225938
602,"Rua Tenente Brito Melo, 1215 ",,4,2446220.0,--,272, Barro Preto, Belo Horizonte ,-19.9180943,-43.9534818,0.11918399752420095
603,"Rua Rodrigo Otávio Coutinho, 0 ",2200.0,4,2602060.0,4,183, Belvedere, Belo Horizonte ,-19.9767965,-43.9422612,0.3627083692582139
604,Rua Professor Baroni ,1400.0,4,1653363.0,4,240, Gutierrez, Belo Horizonte ,-19.9430178,-43.9567038,0.02977037128996607
605,"Rua Bambuí, 25 ",3300.0,4,4349916.0,4,280, Serra, Belo Horizonte ,-19.9521977,-43.9262572,0.7565295295094443
606,Rua Engenheiro Walter Kurrle ,1.0,3,2037860.0,3,176, Belvedere, Belo Horizonte ,-19.9777773,-43.9433639,0.38469498578453487
607,"Rua Liliana Velloso Melo, 120 ",,1,355222.0,2,97, Casa Branca, Belo Horizonte ,-19.8932081,-43.8872585,0.14246271721684034
608,Rua Sagres ,400.0,2,936815.0,4,101, Prado, Belo Horizonte ,-19.9287129,-43.9696491,0.28693237564300833
609,Avenida Alphonsus de Guimarães ,220.0,2,481910.0,3,74, Santa Efigênia, Belo Horizonte ,-19.9160502,-43.908978,0.6122876961881883
610,Rua Cata Preta ,,4,975541.0,3,298, João Pinheiro, Belo Horizonte ,-19.932214,-43.9986254,0.4904732257148916
611,"Rua Desembargador Penna, 191 ",,4,3576854.0,4,378, Belvedere, Belo Horizonte ,-19.9616905,-43.9394295,0.9627219804854097
612,Rua Ondina Pedrosa Nahas ,,3,773876.0,3,120, Serrano, Belo Horizonte ,-19.8789385,-44.0102651,0.9057891054315288
613,Rua Cônsul Robert Levy ,,8,2606153.0,6,574, São Bento, Belo Horizonte ,-19.9559084,-43.9529219,0.09001428102831854
614,Rua da Bahia ,3000.0,4,7050750.0,4,311, Lourdes, Belo Horizonte ,-19.9151776,-43.9347647,0.9504241116425199
615,"Rua Fernandes Tourinho, 880 ",1670.0,2,1976212.0,3,105, Lourdes, Belo Horizonte ,-19.9393917,-43.9358894,0.04029141971661099
616,Rua São Mateus ,230.0,1,265021.0,3,57, Sagrada Família, Belo Horizonte ,-19.9995382,-44.01046,0.522645235722177
617,Rua Canadá ,750.0,2,973759.0,3,90, Carmo, Belo Horizonte ,-19.9489491,-43.9324084,0.4559866257686763
618,Rua Santa Rita do Itueto ,10.0,4,588143.0,4,264, Jardim Leblon, Belo Horizonte ,-19.8281164,-43.9866984,0.7864307356921754
619,Rua Dom Oscar Romero ,510.0,1,263873.0,3,85, Nova Gameleira, Belo Horizonte ,-19.9385354,-43.9916171,0.47274377356437947
620,Rua Desembargador Jorge Fontana ,1800.0,2,5338.0,4,165, Belvedere, Belo Horizonte ,-19.9742039,-43.9395163,0.8628161660708726
621,"Rua da Bahia, 1454 ",,--,6371640.0,--,1250, Lourdes, Belo Horizonte ,-19.9151776,-43.9347647,0.5848001971469584
622,Rua Adauto Lúcio Cardoso ,,5,3992751.0,4,406, Belvedere, Belo Horizonte ,-18.763547,-44.4244838,0.47342162707571633
623,"Rua Frei Luiz de Souza, 135 ",190.0,2,517558.0,2,112, João Pinheiro, Belo Horizonte ,-19.9295132,-44.0003802,0.3748918349163288
624,Rua Contria ,180.0,1,331556.0,3,102, Prado, Belo Horizonte ,-19.9288646,-43.9703277,0.051855887089346187
625,Rua Mar de Espanha ,1300.0,2,631123.0,3,100, Santo Antônio, Belo Horizonte ,-19.945938,-43.9437624,0.4749686455022396
626,"Rua Elson Nunes de Souza, 554 ",410.0,3,717333.0,3,146, Castelo, Belo Horizonte ,-19.889424,-43.9943234,0.36278931072342335
627,"Rua Montes Claros, 1217 ",550.0,2,1482455.0,3,114, Cruzeiro, Belo Horizonte ,-19.9434371,-43.9342094,0.6490237407009545
628,"Rua Newton, 336 ",,--,905094.0,--,396, Santa Lúcia, Belo Horizonte ,-19.9581363,-43.948243,0.45688613319232707
629,Rua Porto Rico ,,4,1258417.0,4,256, Itapoã, Belo Horizonte ,-19.8424928,-43.9593978,0.4401560419494791
630,Rua Antônio Aleixo ,1911.0,2,1603907.0,3,154, Lourdes, Belo Horizonte ,-19.9328187,-43.9465711,0.13824575762185654
631,Rua Ouro Preto ,3500.0,4,4869632.0,4,375, Santo Agostinho, Belo Horizonte ,-19.9190479,-43.949625,0.32472606540686555
632,"Avenida Augusto de Lima, 444 ",500.0,1,658358.0,3,105, Centro, Belo Horizonte ,-19.9230616,-43.9441556,0.9701396570352998
633,Avenida do Contorno ,1500.0,1,209288.0,1,28, Lourdes, Belo Horizonte ,-19.9156428,-43.9453796,0.015157285247271557
634,"Rua dos Timbiras, 2500 ",826.0,--,318009.0,2,70, Santo Agostinho, Belo Horizonte ,-19.9302789,-43.9251047,0.35747017802533065
635,"Avenida Santos Dumont, 304 ",,20,12971430.0,50,3089, Centro, Belo Horizonte ,-19.9149428,-43.941059,0.002060952432816454
636,"Rua Panamá, 115 ",540.0,1,581839.0,3,144, Sion, Belo Horizonte ,-19.9550843,-43.9398499,0.019676496584702496
637,"Rua Bernardo Guimarães, 310 ",2000.0,4,3529998.0,4,197, Funcionários, Belo Horizonte ,-19.927333,-43.9477878,0.38709040764046565
638,Rua França ,,1,221455.0,2,75, Parque Leblon, Belo Horizonte ,-19.9454281,-43.9709884,0.07273655929843004
639,Avenida Francisco Negrão de Lima ,,2,341236.0,3,180, Céu Azul, Belo Horizonte ,-19.8288663,-43.9972386,0.3745798213262107
640,"Rua Piauí, 1052 ",640.0,2,1135326.0,2,70, Funcionários, Belo Horizonte ,-19.9385064,-43.9287698,0.8263131608385609
641,Avenida Professor Mário Werneck ,530.0,5,3547956.0,4,460, Buritis, Belo Horizonte ,-19.9758245,-43.9684461,0.8660725792578247
642,Rua Santa Rita do Itueto ,,1,205948.0,2,56, Jardim Leblon, Belo Horizonte ,-19.8281164,-43.9866984,0.7684610909205776
643,"Rua Rádio, 180 ",800.0,3,753247.0,3,84, São Lucas, Belo Horizonte ,-19.933145,-43.9191379,0.6062769715360048
644,Rua Itajubá ,330.0,1,508521.0,3,92, Sagrada Família, Belo Horizonte ,-19.9111658,-43.9295436,0.8260636410786649
645,"Avenida Afonso Pena, 578 ",,--,1378.0,--,96, Centro, Belo Horizonte ,-19.9469331,-43.9212512,0.48199229995560555
646,"Avenida Paulo Camilo Pena, 1 ",2568.0,3,2384756.0,4,190, Belvedere, Belo Horizonte ,-19.9676329,-43.9429816,0.5764830242160794
647,Rua Rio Grande do Norte ,,--,1486.0,--,50, Savassi, Belo Horizonte ,-19.9302239,-43.9306127,0.4308258360275742
648,Rua Alzira Maria Ferreira ,10.0,3,1663018.0,4,355, Santa Mônica, Belo Horizonte ,-19.8266076,-43.9784995,0.161197969628191
649,"Rua Doutor Pedro Ruela, 77 ",,2,427914.0,3,100, Letícia, Belo Horizonte ,-19.8060919,-43.9767256,0.2608924671695494
650,Avenida Brasil ,,4,3734832.0,--,235, Savassi, Belo Horizonte ,-19.9290274,-43.9305101,0.9089454918570778
651,"Rua Padre Severino, 0 ",700.0,2,1497449.0,1,114, São Pedro, Belo Horizonte ,-19.9453134,-43.9364757,0.0922171910835804
652,Rua Olinto Magalhães ,250.0,2,422095.0,3,100, Padre Eustáquio, Belo Horizonte ,-19.9130557,-43.9916439,0.4079679781566711
653,Rua Saide Haddad Antônio ,1.0,2,682420.0,3,180, Santa Amélia, Belo Horizonte ,-19.8392527,-43.9843107,0.868177388504397
654,"Rua Espírito Santo, 1171 ",,1,505834.0,2,50, Centro, Belo Horizonte ,-18.8647762,-41.1217768,0.16631469860254688
655,Rua Rio de Janeiro ,550.0,1,738915.0,2,150, Centro, Belo Horizonte ,-19.9150685,-43.9375314,0.5455406604182853
656,"Rua Antônio Aleixo, 634 ",4400.0,4,4330889.0,4,460, Lourdes, Belo Horizonte ,-19.9328187,-43.9465711,0.39707682388145216
657,"Rua Paracatu, 1378 ",,4,3132359.0,4,178, Santo Agostinho, Belo Horizonte ,-19.9198913,-43.9512169,0.8202217522333731
658,Rua Edith Barbosa Rocha ,100.0,1,328660.0,3,99, Venda Nova, Belo Horizonte ,-19.7977103,-43.9753648,0.3330950893358027
659,Avenida do Contorno ,,1,191722.0,1,27, Lourdes, Belo Horizonte ,-19.9156428,-43.9453796,0.27774319336175624
660,Rua Santo Antônio do Monte ,485.0,2,739351.0,2,130, Santo Antônio, Belo Horizonte ,-19.9472748,-43.9410432,0.6250188515526803
661,"Rua Ema Stersa, 0 ",,--,823173.0,--,600, Letícia, Belo Horizonte ,-19.806049,-43.9738046,0.7596211334107255
662,"Rua Santíssimo, 40 ",600.0,2,569523.0,3,100, Alto dos Caiçaras, Belo Horizonte ,-19.901892,-43.9735209,0.6229160288851087
663,"Rua José Teófilo Marques, 10 ",200.0,--,229670.0,1,45, Buritis, Belo Horizonte ,-19.9744554,-43.9776988,0.48351748814272566
664,Rua São Paulo ,1032.0,2,1351368.0,3,95, Lourdes, Belo Horizonte ,-19.914782,-43.9388011,0.26139600620940096
665,"Rua Martim de Carvalho, 240 ",1000.0,2,1456356.0,4,254, Santo Agostinho, Belo Horizonte ,-19.9311733,-43.9479411,0.6508488308035987
666,"Rua da Bahia, 2569 ",1321.0,2,2602324.0,2,243, Lourdes, Belo Horizonte ,-19.9151776,-43.9347647,0.31445133718388896
667,Rua Geraldo Moreira dos Santos ,,2,431128.0,3,150, Céu Azul, Belo Horizonte ,-19.8230918,-44.0081338,0.9757776622277384
668,Rua Capitão Procópio ,300.0,3,629169.0,4,115, Santa Tereza, Belo Horizonte ,-19.9173798,-43.9201882,0.871108194539718
669,"Rua Benjamim Jacob, 397 ",1850.0,4,1963983.0,4,280, Gutierrez, Belo Horizonte ,-19.9400181,-43.9625037,0.5528404585280137
670,Rua Pedra Lavrada ,,1,268318.0,2,51, São Gabriel, Belo Horizonte ,-19.8490873,-43.9124684,0.2266774263683511
671,Rua Elson Nunes de Souza ,200.0,1,480281.0,3,146, Castelo, Belo Horizonte ,-19.889424,-43.9943234,0.4352506501441531
672,"Rua Iracy Manata, 160 ",540.0,2,947792.0,3,190, Buritis, Belo Horizonte ,-19.9671697,-43.9701124,0.1504993286396391
673,Rua Califórnia ,1000.0,2,826147.0,3,100, Sion, Belo Horizonte ,-19.9530435,-43.9341217,0.8021007841478364
674,"Rua Bernardo Guimarães, 1020 ",800.0,2,860949.0,3,100, Funcionários, Belo Horizonte ,-19.927333,-43.9477878,0.4793144118917614
675,Rua Machado ,390.0,1,374633.0,3,58, Floresta, Belo Horizonte ,-19.9075288,-43.9336234,0.3870151088202006
676,Rua Cônsul Walter ,288.0,2,604164.0,3,85, Buritis, Belo Horizonte ,-19.9745736,-43.9696865,0.6185383488959673
677,"Rua Professor Carlos Pereira da Silva, 92 ",1.0,6,3885289.0,4,584, Belvedere, Belo Horizonte ,-19.968435,-43.9420157,0.9547353773950501
678,"Rua Sebastião Fabiano Dias, 233 ",,--,1605315.0,3,210, Belvedere, Belo Horizonte ,-19.9763098,-43.9441586,0.5490315481228015
679,Rua La Plata ,,2,1575701.0,3,173, Sion, Belo Horizonte ,-19.9542202,-43.9328012,0.7065455454669961
680,Rua Iraí ,500.0,2,2996.0,2,66, Cidade Jardim, Belo Horizonte ,-19.9463585,-43.9507721,0.09783401503021816
681,Avenida Deputado Anuar Menhen ,,1,204644.0,3,64, Santa Amélia, Belo Horizonte ,-19.8298106,-43.9717578,0.36909875036811746
682,Rua Doutor José Olímpio Borges ,400.0,2,512451.0,3,72, São Lucas, Belo Horizonte ,-19.9286134,-43.9146488,0.14022992858734218
683,"Rua Muzambinho, 272 ",800.0,3,1106688.0,4,204, Cruzeiro, Belo Horizonte ,-19.94661,-43.923608,0.2927377500098972
684,"Rua Antônio Aleixo, 82 ",2105.0,3,2735671.0,4,334, Lourdes, Belo Horizonte ,-19.9328187,-43.9465711,0.8942221582602639
685,"Rua Matipó, 137 ",820.0,2,723761.0,4,165, Santo Antônio, Belo Horizonte ,-19.9473515,-43.9434703,0.22110661357104844
686,Rua Tomé de Souza ,1000.0,4,1606896.0,4,200, Savassi, Belo Horizonte ,-19.9388244,-43.9274451,0.08204385059857344
687,"Rua Senhora do Porto, 1330 ",350.0,2,425435.0,3,68, Palmeiras, Belo Horizonte ,-19.9683909,-43.9842281,0.22518562885073823
688,Rua Joaquim Campolina Diniz ,,3,790336.0,4,124, Jardim Leblon, Belo Horizonte ,-19.821138,-43.9873304,0.3717422808301244
689,Avenida Miguel Perrela ,500.0,1,585448.0,2,70, Castelo, Belo Horizonte ,-19.8819312,-43.999487,0.25862301248667807
690,Rua Felipe dos Santos ,2886.0,4,4130184.0,4,350, Lourdes, Belo Horizonte ,-19.9342841,-43.9462997,0.47273266561026595
691,"Rua Paulo Afonso, 969 ",400.0,2,730304.0,2,62, Santo Antônio, Belo Horizonte ,-19.9468549,-43.9460463,0.6105643242764972
692,Rua José Wanderley Lara ,,4,1799240.0,4,290, Dona Clara, Belo Horizonte ,-19.8602701,-43.9422449,0.3159766295718711
693,Rua Araguari ,2365.0,4,3316245.0,4,270, Santo Agostinho, Belo Horizonte ,-19.9304083,-43.9514156,0.27974385867297225
694,Rua Oscar Trompowsky ,280.0,1,414417.0,3,95, Grajaú, Belo Horizonte ,-19.9364995,-43.9613222,0.8404942199824997
695,Rua Amoras ,732.0,1,766700.0,3,167, Santa Efigênia, Belo Horizonte ,-19.9227288,-43.9136014,0.11159577747504101
696,Rua Tabelião Ferreira de Carvalho ,280.0,1,434637.0,3,85, Cidade Nova, Belo Horizonte ,-19.8869404,-43.9290733,0.43782687943730747
697,"Rua Doutor Orestes Diniz, 191 ",300.0,1,336381.0,3,100, Nova Suíssa, Belo Horizonte ,-19.9373106,-43.9803224,0.21645526364573386
698,"Rua Sebastião Fabiano Dias, 233 ",1500.0,2,1067016.0,3,101, Belvedere, Belo Horizonte ,-19.9763098,-43.9441586,0.000166059802233276
699,"Rua Rosa Zandona, 194 ",,1,288254.0,2,61, Venda Nova, Belo Horizonte ,-19.8141271,-43.9642957,0.08670007510193123
700,"Rua Clementino Viana Dotti, 193 ",350.0,2,751957.0,4,120, Buritis, Belo Horizonte ,-19.9729996,-43.968041,0.8232182090473537
701,"Rua Professor Magalhães Drumond, 144 ",425.0,1,652241.0,3,115, Santo Antônio, Belo Horizonte ,-19.939075,-43.9428019,0.8589314243063454
702,Rua Machado Nunes ,175.0,1,231941.0,2,48, Salgado Filho, Belo Horizonte ,-19.90054,-43.9700939,0.04480072901757204
703,"Rua Montes Claros, 429 ",375.0,2,1124809.0,3,140, Anchieta, Belo Horizonte ,-19.9434371,-43.9342094,0.36170749456872897
704,"Rua Desembargador Paulo Mota, 134 ",,5,1126907.0,5,260, Ouro Preto, Belo Horizonte ,-19.884957,-43.9827668,0.29165422518379736
705,"Avenida Augusto de Lima, 444 ",427.0,--,463143.0,3,88, Centro, Belo Horizonte ,-19.9230616,-43.9441556,0.02720882468961905
706,"Rua Maria Fortunata Rothéia, 2640 ",,--,321073.0,--,28, Castelo, Belo Horizonte ,-19.8871877,-43.9908263,0.4668870892619308
707,Rua dos Zapotecas ,,1,315411.0,3,70, Santa Mônica, Belo Horizonte ,-19.8297784,-43.9768455,0.7253222459794909
708,Rua Gonçalves Dias ,1343.0,2,1722646.0,4,152, Lourdes, Belo Horizonte ,-19.9311846,-43.9376407,0.7989474469669143
709,"Avenida Augusto de Lima, 1121 ",,--,371549.0,2,80, Centro, Belo Horizonte ,-19.9230616,-43.9441556,0.6109144951209967
710,Avenida do Contorno ,400.0,1,614557.0,4,140, Funcionários, Belo Horizonte ,-19.9156428,-43.9453796,0.5954068021122552
711,Rua Carlos Alves ,260.0,1,407019.0,3,77, São José, Belo Horizonte ,-19.8580413,-43.9625625,0.9711516927703513
712,Rua dos Aeroviários ,320.0,2,474442.0,3,67, Pampulha, Belo Horizonte ,-19.8586579,-43.9548531,0.2962363215329281
713,Rua José Carvalho Monteiro ,,1,345595.0,4,130, Pirajá, Belo Horizonte ,-19.8691406,-43.9182656,0.476917459822801
714,Rua Felipe dos Santos ,1500.0,2,2180851.0,4,450, Lourdes, Belo Horizonte ,-19.9342841,-43.9462997,0.7883816981401353
715,Rua Conselheiro Lafaiete ,,1,621873.0,3,87, Sagrada Família, Belo Horizonte ,-19.9114276,-43.925375,0.3067893209177204
716,Rua Itacaiunas ,,3,2489021.0,4,328, Buritis, Belo Horizonte ,-19.9765215,-43.9615408,0.06231345671993993
717,Rua Salinas ,540.0,2,798627.0,2,120, Floresta, Belo Horizonte ,-19.91359,-43.9138661,0.574308897530887
718,"Avenida Álvares Cabral, 340 ",558.0,--,404927.0,2,95, Lourdes, Belo Horizonte ,-19.9244866,-43.9354151,0.24796826137863026
719,Rua Gustavo Ladeira ,350.0,1,335344.0,2,57, Castelo, Belo Horizonte ,-19.8798769,-43.9917158,0.2531646847137615
720,"Rua La Plata, 205 ",650.0,2,1777675.0,4,138, Sion, Belo Horizonte ,-19.9542202,-43.9328012,0.9307067588840877
721,Rua Cordilheiras ,,2,767556.0,3,242, Serrano, Belo Horizonte ,-19.8889461,-44.0094623,0.12400713613161507
722,"Rua dos Guajajaras, 1976 ",,1,793061.0,2,118, Barro Preto, Belo Horizonte ,-19.9261909,-43.93638,0.5382851634127634
723,"Rua Maranhão, 0 ",4000.0,6,12339019.0,5,650, Funcionários, Belo Horizonte ,-19.9265829,-43.9240941,0.2172901981384674
724,"Rua Rio de Janeiro, 909 ",627.0,1,553087.0,3,136, Centro, Belo Horizonte ,-19.9150685,-43.9375314,0.2874941789947666
725,Rua Roquete Mendonça ,,--,1162984.0,--,360, São José, Belo Horizonte ,-19.8609099,-43.9688852,0.8671818221713772
726,Rua Francisco da Veiga ,220.0,1,272330.0,2,68, Monsenhor Messias, Belo Horizonte ,-19.9094963,-43.9773677,0.5884948965226405
727,"Rua Alcântara, 206 ",400.0,2,4116.0,2,65, Nova Granada, Belo Horizonte ,-19.9374107,-43.9712444,0.7595415029087346
728,"Rua dos Guajajaras, 329 ",460.0,--,442895.0,3,80, Lourdes, Belo Horizonte ,-19.9261909,-43.93638,0.3562808359131896
729,Rua Rádio ,,2,818304.0,3,84, São Lucas, Belo Horizonte ,-19.933145,-43.9191379,0.7860303818073799
730,"Rua Juvenal Melo Senra, 312 ",3400.0,3,2232534.0,4,207, Belvedere, Belo Horizonte ,-19.9726191,-43.9383825,0.7501799140362346
731,Rua São Joaquim ,600.0,1,397377.0,3,104, Sagrada Família, Belo Horizonte ,-19.8976312,-43.9209084,0.3536266918251555
732,Rua Herval ,2140.0,3,1325600.0,3,214, Serra, Belo Horizonte ,-19.9392933,-43.9189106,0.5269604499497541
733,Rua Campanário ,260.0,3,882869.0,4,260, Santa Inês, Belo Horizonte ,-19.8873609,-43.9075447,0.3188382179614151
734,"Avenida Bias Fortes, 1801 ",450.0,1,312418.0,2,70, Lourdes, Belo Horizonte ,-19.9320955,-43.9393472,0.5710550917592276
735,"Rua Antônio Ferreira de Barros, 461 ",1.0,2,254376.0,2,59, Céu Azul, Belo Horizonte ,-19.8286929,-43.9959596,0.4583770866065313
736,"Rua dos Timbiras, 261 ",100.0,2,1008814.0,3,85, Funcionários, Belo Horizonte ,-19.9302789,-43.9251047,0.8684024607425112
737,Avenida do Contorno ,,--,331195.0,--,45, Funcionários, Belo Horizonte ,-19.9156428,-43.9453796,0.039833885572275185
738,Rua Rio de Janeiro ,500.0,--,381982.0,2,67, Lourdes, Belo Horizonte ,-19.9150685,-43.9375314,0.0719331284627287
739,"Rua Ceará, 1883 ",1870.0,3,1945587.0,4,193, Savassi, Belo Horizonte ,-19.921286,-43.9253997,0.11763904679036863
740,Rua Madre Beatriz ,1.0,1,238506.0,2,46, Planalto, Belo Horizonte ,-19.8416634,-43.944294,0.357438298133973
741,"Rua Plutão, 64 ",,--,606335.0,--,396, Santa Lúcia, Belo Horizonte ,-19.9666177,-43.9444697,0.33337304961921965
742,Rua Pium,475.0,1,522733.0,1,54,I, 1122 ,-19.9514868,-43.9301243,0.1219872983551682
743,Rua Gustavo da Silveira ,,3,717151.0,5,277, Sagrada Família, Belo Horizonte ,-19.8868514,-43.9128283,0.9525247286571155
744,Rua Martim Francisco ,750.0,2,1047526.0,4,150, Gutierrez, Belo Horizonte ,-19.9388518,-43.9592489,0.026588521836790835
745,"Rua Mucuri, 231 ",400.0,2,766973.0,3,78, Floresta, Belo Horizonte ,-19.9187008,-43.9268711,0.4132821849428209
746,"Rua Dirceu Duarte Braga, 377 ",,1,192647.0,2,43, Trevo, Belo Horizonte ,-19.8333674,-44.0132479,0.36558910783912557
747,"Rua Cubatão, 185 ",,1,531399.0,3,75, Renascença, Belo Horizonte ,-19.8875816,-43.9422956,0.07080618766819302
748,Rua Guilherme de Almeida ,1000.0,2,679205.0,3,100, Santo Antônio, Belo Horizonte ,-19.9482786,-43.9476553,0.6103393863649725
749,Rua Cardeal Stepinac ,580.0,3,1371913.0,3,204, Cidade Nova, Belo Horizonte ,-19.8852186,-43.9266104,0.15376139741431505
750,Rua Ministro Oliveira Salazar ,,2,372564.0,3,75, Santa Mônica, Belo Horizonte ,-19.8175291,-43.9740618,0.8274177816442015
751,Avenida Carandaí ,1490.0,3,2128201.0,3,124, Funcionários, Belo Horizonte ,-19.9282667,-43.9283209,0.8233401291282342
752,Avenida Senador José Augusto ,1593.0,3,1651326.0,4,126, Buritis, Belo Horizonte ,-19.9812868,-43.978411,0.7951891461226243
753,Rua Doutor Álvaro Camargos ,340.0,1,190137.0,2,50, São João Batista, Belo Horizonte ,-19.8285373,-43.9625532,0.8835774268002315
754,"Rua da Gameleira, 22 ",,2,488410.0,3,83, Santa Branca, Belo Horizonte ,-19.8318091,-43.9703066,0.1255047471309163
755,Rua Psi ,,4,644991.0,3,178, Caiçaras, Belo Horizonte ,-19.8985783,-43.9680708,0.315628936681818
756,"Rua Ouro Preto, 1274 ",880.0,3,2857208.0,4,133, Santo Agostinho, Belo Horizonte ,-19.9190479,-43.949625,0.5210013152226615
757,"Rua Professora Bartira Mourão, 307 ",430.0,2,680162.0,3,150, Buritis, Belo Horizonte ,-19.9691439,-43.9679544,0.5281670732841396
758,Rua Emídio Germano ,,1,365320.0,2,107, Boa Vista, Belo Horizonte ,-19.8940183,-43.9088305,0.7845235501509595
759,"Rua Tenente Anastácio de Moura, 221 ",1964.0,3,1381521.0,5,155, Santa Efigênia, Belo Horizonte ,-19.9291188,-43.9177972,0.05216659645515642
760,Rua Francisco Bicalho ,500.0,2,775332.0,3,89, Padre Eustáquio, Belo Horizonte ,-19.9037316,-43.9774067,0.9281896482313035
761,"Rua dos Caetés, 745 ",298.0,--,423009.0,1,39, Centro, Belo Horizonte ,-19.915688,-43.9419734,0.7502409486645423
762,"Avenida Silva Lobo, 1 ",236.0,1,373261.0,3,97, Alto Barroca, Belo Horizonte ,-19.9290947,-43.9716769,0.31094415585353086
763,"Rua Coqueiro, 480 ",220.0,8,314696.0,3,85, Cachoeirinha, Belo Horizonte ,-19.7458117,-43.9631177,0.2391456475074032
764,Rua Laura Brito Farias ,,1,394916.0,2,111, Heliópolis, Belo Horizonte ,-19.8410324,-43.939367,0.9671444827633662
765,"Rua Paraíba, 1041 ",1254.0,2,1599197.0,3,92, Savassi, Belo Horizonte ,-19.9262855,-43.9309181,0.4228340878191832
766,Rua Doutor João Miranda ,330.0,2,508093.0,3,96, Dona Clara, Belo Horizonte ,-19.8611329,-43.9367472,0.2659197786019588
767,Rua Alagoas ,1.0,2,1265759.0,2,102, Savassi, Belo Horizonte ,-19.9314695,-43.9350021,0.5068983084957165
768,"Rua Tomé de Souza, 0 ",1440.0,2,2014930.0,4,209, Savassi, Belo Horizonte ,-19.9388244,-43.9274451,0.8525276739588802
769,Rua Pium,800.0,5,7318.0,4,547,,Belo Horizonte,-19.9514868,-43.9301243,0.2584811370874063
770,Rua José Alves de Souza ,,2,395026.0,3,118, Santa Terezinha, Belo Horizonte ,-19.8719206,-44.0112587,0.7918081172231283
771,Rua Desembargador José Burnier ,392.0,2,505655.0,2,125, Castelo, Belo Horizonte ,-19.8905883,-43.9979285,0.23678142449272832
772,Rua Califórnia ,1520.0,3,1660659.0,4,178, Sion, Belo Horizonte ,-19.9530435,-43.9341217,0.1453633529305114
773,"Rua São Paulo, 2386 ",4800.0,4,5503141.0,4,334, Lourdes, Belo Horizonte ,-19.914782,-43.9388011,0.006282543173124822
774,Rua Doutor Helvécio Arantes ,650.0,2,916399.0,2,170, Luxemburgo, Belo Horizonte ,-19.9496535,-43.9574198,0.7487108693081536
775,Rua Antônio de Sá ,100.0,1,291598.0,2,70, Santa Mônica, Belo Horizonte ,-19.8255979,-43.97435,0.6639324271052711
776,Rua Leopoldina ,731.0,1,2091.0,3,100, Santo Antônio, Belo Horizonte ,-19.9475349,-43.9422533,0.949050969604571
777,"Rua Herval, 150 ",1635.0,2,3364.0,4,150, Serra, Belo Horizonte ,-19.9392933,-43.9189106,0.21488251063273822
778,Rua Iracy Manata ,600.0,2,512343.0,3,89, Buritis, Belo Horizonte ,-19.9671697,-43.9701124,0.3853895240537468
779,Rua Turquesa ,600.0,4,669526.0,3,196, Prado, Belo Horizonte ,-19.9274805,-43.969993,0.9558197387520649
780,"Rua Francisco Campos, 410 ",1.0,4,1064755.0,3,180, Trevo, Belo Horizonte ,-19.8368713,-44.0105466,0.09119729686737854
781,"Rua Antônio de Albuquerque, 357 ",,2,1812030.0,--,70, Savassi, Belo Horizonte ,-19.936584,-43.9421163,0.3251901171057675
782,"Rua Oriente, 403 ",,2,1510517.0,4,192, Serra, Belo Horizonte ,-19.9441127,-43.9187317,0.18901174632681828
783,Rua Tomé de Souza ,3400.0,4,4408328.0,4,480, Savassi, Belo Horizonte ,-19.9388244,-43.9274451,0.04844218042604442
784,Rua Antônio de Albuquerque ,275.0,2,887511.0,2,52, Savassi, Belo Horizonte ,-19.936584,-43.9421163,0.09388315639770461
785,Rua Doutor Sylvio Menicucci ,385.0,2,731547.0,2,128, Castelo, Belo Horizonte ,-19.8851177,-44.0059034,0.2545618903027056
786,Rua Ester Augusta Ribeiro ,350.0,1,185244.0,2,48, Camargos, Belo Horizonte ,-19.9380101,-44.0167748,0.09246050392744143
787,Rua Célio de Castro ,,3,1103718.0,5,330, Floresta, Belo Horizonte ,-19.9123936,-43.9340522,0.05929417311740948
788,Rua Tomaz Gonzaga ,2700.0,4,2826816.0,4,201, Lourdes, Belo Horizonte ,-19.9329322,-43.9411068,0.31178768773420984
789,"Rua Aldebaram, 280 ",,5,3399289.0,4,538, Comiteco, Belo Horizonte ,-19.9564148,-43.9275517,0.927329040370229
790,Rua Castelo de Edimburgo ,750.0,4,964123.0,4,166, Castelo, Belo Horizonte ,-19.8783474,-44.000258,0.3426184170239851
791,"Rua Rio de Janeiro, 1165 ",450.0,--,304608.0,2,65, Centro, Belo Horizonte ,-19.9150685,-43.9375314,0.28178792560701327
792,Rua Cacuera ,,2,1249778.0,4,384, Jaraguá, Belo Horizonte ,-19.8580271,-43.9541817,0.3616205743102251
793,Rua Córrego da Mata ,430.0,1,375323.0,2,55, Sagrada Família, Belo Horizonte ,-19.9109591,-43.9187938,0.7288404044381999
794,Avenida Portugal ,1800.0,2,1493905.0,4,260, Jardim Atlântico, Belo Horizonte ,-19.8425871,-43.9698185,0.5806588543668261
795,Avenida Artur Bernardes ,,1,691262.0,3,146, Vila Paris, Belo Horizonte ,-19.9545898,-43.9465102,0.1493800855284646
796,Rua Abeilard Pereira ,,2,518580.0,2,15, Santa Amélia, Belo Horizonte ,-19.8445112,-43.9813741,0.9213716626770609
797,Rua Passa Tempo ,1200.0,2,1258911.0,3,110, Carmo, Belo Horizonte ,-19.9458256,-43.9307955,0.4446435982580632
798,"Rua Paulo Piedade Campos, 730 ",,1,510131.0,4,120, Estoril, Belo Horizonte ,-19.9616947,-43.9652056,0.3362370066580218
799,"Rua José Carvalho Monteiro, 22 ",200.0,1,301246.0,2,58, Fernão Dias, Belo Horizonte ,-19.8691406,-43.9182656,0.2868615177846565
800,Rua São Sebastião do Maranhão ,30.0,1,214670.0,2,54, Jardim Leblon, Belo Horizonte ,-19.8232454,-43.9891017,0.9261102417238599
801,Rua Lírios,,4,366803.0,2,70,,Belo Horizonte,-19.9794184,-44.1714651,0.1152541836939549
802,Rua José Hemetério Andrade ,1800.0,3,1407034.0,4,148, Buritis, Belo Horizonte ,-19.9786425,-43.9631117,0.25627576603588154
803,Rua Ximbe ,,--,708921.0,--,1000, Braúnas, Belo Horizonte ,-19.8506097,-44.008796,0.815356495064365
804,"Rua Mondovi, 620 ",,10,1632257.0,5,550, Bandeirantes, Belo Horizonte ,-19.8542526,-43.9928844,0.8279507342843917
805,Rua dos Inconfidentes ,1.0,2,1257450.0,3,82, Savassi, Belo Horizonte ,-19.937775,-43.9268338,0.41305912975903314
806,Rua Monte Simplon ,750.0,2,631532.0,3,82, Nova Suíssa, Belo Horizonte ,-19.9295351,-43.9824004,0.8043295832733769
807,"Rua Marquês de Paranaguá, 309 ",1250.0,4,1470821.0,4,170, Santo Antônio, Belo Horizonte ,-19.9393195,-43.9471327,0.7665698983612232
808,Rua Rio de Janeiro ,1180.0,3,1686487.0,2,96, Lourdes, Belo Horizonte ,-19.9150685,-43.9375314,0.7117166169044759
809,Rua Alvarenga Peixoto ,1324.0,2,1317204.0,3,102, Lourdes, Belo Horizonte ,-19.929576,-43.9494157,0.9745789182913996
810,"Rua Custódio Carreira, 32 ",310.0,2,561340.0,3,96, Prado, Belo Horizonte ,-19.926971,-43.9715473,0.6945757474108536
811,"Rua Marcos Diniz Siqueira, 48 ",400.0,2,947712.0,4,130, Santa Rosa, Belo Horizonte ,-19.8616398,-43.9452112,0.8464035865007515
812,Rua Espírito Santo ,1800.0,3,2924089.0,4,325, Lourdes, Belo Horizonte ,-18.8647762,-41.1217768,0.24649646553595506
813,Rua dos Aimorés ,,1,444521.0,--,82, Funcionários, Belo Horizonte ,-19.9245137,-43.9538877,0.16886912017985356
814,Rua Flávio Marques Lisboa ,,3,2991906.0,3,176, Barreiro, Belo Horizonte ,-19.9763376,-44.0146811,0.9676243093257633
815,Rua Luiz Cosme ,,6,1192881.0,4,300, Havaí, Belo Horizonte ,-19.9640512,-43.9717642,0.9288059898690342
816,Rua Dona Cidinha Stussi ,,4,1134307.0,4,360, Santa Amélia, Belo Horizonte ,-19.8408076,-43.9848631,0.5745587531329162
817,"Rua São Paulo, 1031 ",320.0,--,238824.0,2,56, Centro, Belo Horizonte ,-19.914782,-43.9388011,0.3725577748515737
818,Rua Antônio de Albuquerque ,,2,1772505.0,--,70, Savassi, Belo Horizonte ,-19.936584,-43.9421163,0.0781582281819706
819,Rua Professora Bartira Mourão ,800.0,3,1714711.0,4,180, Buritis, Belo Horizonte ,-19.9691439,-43.9679544,0.8255942772929054
820,Avenida Mem de Sá ,350.0,2,1752.0,3,105, Santa Efigênia, Belo Horizonte ,-19.9178011,-43.9108554,0.6825703578801183
